<?xml version="1.0"?>
<markers><marker lat="40.4757708" lng="-80.0008622" zone="Zone 1" incidentdate="2014-07-07" incidenttime="00:01:00" incidentnumber="14130998" address="300 Penfort Street, Pittsburgh, PA 15214, USA" type="OFFENSE" description="*********************************************** &lt;br/&gt;Harassment (Non-Specific)&lt;br/&gt;"/><marker lat="40.4116511" lng="-80.01533789999999" zone="Zone 6" incidentdate="2014-07-07" incidenttime="00:01:00" incidentnumber="14131035" address="200 Platt Avenue, Pittsburgh, PA 15216, USA" type="OFFENSE" description="*********************************************** &lt;br/&gt;Harassment.&lt;br/&gt;"/><marker lat="40.407453" lng="-80.0135993" zone="Zone 6" incidentdate="2014-07-07" incidenttime="00:30:00" incidentnumber="14130622" address="600 Southcrest Court, Pittsburgh, PA 15226, USA" type="OFFENSE" description="*********************************************** &lt;br/&gt;Theft by Unlawful Taking or Disposition - Movable item&lt;br/&gt;"/><marker lat="40.3885654" lng="-79.9085514" zone="Zone 4" incidentdate="2014-07-07" incidenttime="01:30:00" incidentnumber="14131143" address="West Run Road, PA, USA" type="OFFENSE" description="*********************************************** &lt;br/&gt;Theft by Unlawful Taking or Disposition.&lt;br/&gt;"/><marker lat="40.4429512" lng="-79.9734733" zone="Zone 2" incidentdate="2014-07-07" incidenttime="01:34:00" incidentnumber="14130624" address="Kennard Playground, Pittsburgh, PA 15213, USA" type="OFFENSE" description="*********************************************** &lt;br/&gt;Marijuana: Possession Small Amount&lt;br/&gt;Marijuana: Possession Small Amount&lt;br/&gt;"/><marker lat="40.4429512" lng="-79.9734733" zone="Zone 2" incidentdate="2014-07-07" incidenttime="01:40:00" incidentnumber="14130624" address="Kennard Playground, Pittsburgh, PA 15213, USA" type="ARREST" description="*********************************************** &lt;br/&gt;Marijuana: Possession Small Amount&lt;br/&gt;Marijuana: Possession Small Amount&lt;br/&gt;"/><marker lat="40.44879" lng="-79.987487" zone="Zone 2" incidentdate="2014-07-07" incidenttime="01:56:00" incidentnumber="14130631" address="Penn Avenue &amp; 16th Street, Pittsburgh, PA 15222, USA" type="ARREST" description="*********************************************** &lt;br/&gt;Drivers Required to be Licensed.&lt;br/&gt;Driving While Operating Privilege is Suspended or Revoked.&lt;br/&gt;Recklessly Endangering Another Person.&lt;br/&gt;Traffic-Control Signals.&lt;br/&gt;One-Way Roadways and Rotary Traffic Islands.&lt;br/&gt;Careless Driving&lt;br/&gt;Fleeing or Attempting to Elude Police Officer&lt;br/&gt;Accidents Involving Damage to Attended Veh. or Property&lt;br/&gt;DUI - General Impairment&lt;br/&gt;Unauthorized Use of Automobile and Other Vehicles.&lt;br/&gt;Tampering with or Fabricating Physical Evidence.&lt;br/&gt;Drivers Required to be Licensed.&lt;br/&gt;Driving While Operating Privilege is Suspended or Revoked.&lt;br/&gt;Recklessly Endangering Another Person.&lt;br/&gt;Traffic-Control Signals.&lt;br/&gt;One-Way Roadways and Rotary Traffic Islands.&lt;br/&gt;Careless Driving&lt;br/&gt;Fleeing or Attempting to Elude Police Officer&lt;br/&gt;Accidents Involving Damage to Attended Veh. or Property&lt;br/&gt;DUI - General Impairment&lt;br/&gt;Unauthorized Use of Automobile and Other Vehicles.&lt;br/&gt;Tampering with or Fabricating Physical Evidence.&lt;br/&gt;"/><marker lat="40.44879" lng="-79.987487" zone="Zone 2" incidentdate="2014-07-07" incidenttime="01:56:00" incidentnumber="14130631" address="Penn Avenue &amp; 16th Street, Pittsburgh, PA 15222, USA" type="OFFENSE" description="*********************************************** &lt;br/&gt;Drivers Required to be Licensed.&lt;br/&gt;Driving While Operating Privilege is Suspended or Revoked.&lt;br/&gt;Recklessly Endangering Another Person.&lt;br/&gt;Traffic-Control Signals.&lt;br/&gt;One-Way Roadways and Rotary Traffic Islands.&lt;br/&gt;Careless Driving&lt;br/&gt;Fleeing or Attempting to Elude Police Officer&lt;br/&gt;Accidents Involving Damage to Attended Veh. or Property&lt;br/&gt;DUI - General Impairment&lt;br/&gt;Unauthorized Use of Automobile and Other Vehicles.&lt;br/&gt;Tampering with or Fabricating Physical Evidence.&lt;br/&gt;Drivers Required to be Licensed.&lt;br/&gt;Driving While Operating Privilege is Suspended or Revoked.&lt;br/&gt;Recklessly Endangering Another Person.&lt;br/&gt;Traffic-Control Signals.&lt;br/&gt;One-Way Roadways and Rotary Traffic Islands.&lt;br/&gt;Careless Driving&lt;br/&gt;Fleeing or Attempting to Elude Police Officer&lt;br/&gt;Accidents Involving Damage to Attended Veh. or Property&lt;br/&gt;DUI - General Impairment&lt;br/&gt;Unauthorized Use of Automobile and Other Vehicles.&lt;br/&gt;Tampering with or Fabricating Physical Evidence.&lt;br/&gt;"/><marker lat="40.423899" lng="-79.9776766" zone="Zone 3" incidentdate="2014-07-07" incidenttime="02:00:00" incidentnumber="14130635" address="South 18th Street &amp; Pius Street, Pittsburgh, PA 15203, USA" type="OFFENSE" description="*********************************************** &lt;br/&gt;Careless Driving&lt;br/&gt;DUI - General Impairment&lt;br/&gt;DUI - Highest Rate of Alcohol - BAC &gt;= .16%&lt;br/&gt;Careless Driving&lt;br/&gt;DUI - General Impairment&lt;br/&gt;DUI - Highest Rate of Alcohol - BAC &gt;= .16%&lt;br/&gt;"/><marker lat="40.4599458" lng="-79.88627629999999" zone="Zone 5" incidentdate="2014-07-07" incidenttime="02:01:00" incidentnumber="14130638" address="Heart Court, Pittsburgh, PA 15208, USA" type="OFFENSE" description="*********************************************** &lt;br/&gt;Simple Assault.&lt;br/&gt;Simple Assault.&lt;br/&gt;"/><marker lat="40.423899" lng="-79.9776766" zone="Zone 3" incidentdate="2014-07-07" incidenttime="02:10:00" incidentnumber="14130635" address="South 18th Street &amp; Pius Street, Pittsburgh, PA 15203, USA" type="ARREST" description="*********************************************** &lt;br/&gt;Careless Driving&lt;br/&gt;DUI - General Impairment&lt;br/&gt;DUI - Highest Rate of Alcohol - BAC &gt;= .16%&lt;br/&gt;Careless Driving&lt;br/&gt;DUI - General Impairment&lt;br/&gt;DUI - Highest Rate of Alcohol - BAC &gt;= .16%&lt;br/&gt;"/><marker lat="40.452267" lng="-79.934748" zone="Zone 4" incidentdate="2014-07-07" incidenttime="02:20:00" incidentnumber="14130648" address="700 Bellefonte Street, Pittsburgh, PA 15232, USA" type="OFFENSE" description="*********************************************** &lt;br/&gt;Accidents Involving Damage to Unattended Veh.or Prop.&lt;br/&gt;"/><marker lat="40.4599458" lng="-79.88627629999999" zone="Zone 5" incidentdate="2014-07-07" incidenttime="02:28:00" incidentnumber="14130638" address="Heart Court, Pittsburgh, PA 15208, USA" type="ARREST" description="*********************************************** &lt;br/&gt;Simple Assault.&lt;br/&gt;Simple Assault.&lt;br/&gt;"/><marker lat="40.4676687" lng="-79.926783" zone="Zone 5" incidentdate="2014-07-07" incidenttime="02:40:00" incidentnumber="14130651" address="500 Mellon Street, Pittsburgh, PA 15206, USA" type="OFFENSE" description="*********************************************** &lt;br/&gt;9999 - (Misc. Incident):&lt;br/&gt;"/><marker lat="40.4288731" lng="-80.0242083" zone="Zone 3" incidentdate="2014-07-07" incidenttime="02:56:00" incidentnumber="14131002" address="Saw Mill Run Boulevard &amp; Woodruff Street, Pittsburgh, PA 15220, USA" type="OFFENSE" description="*********************************************** &lt;br/&gt;Accidents Involving Damage to Attended Veh. or Property&lt;br/&gt;"/><marker lat="40.4733157" lng="-79.92830169999999" zone="Zone 5" incidentdate="2014-07-07" incidenttime="04:10:00" incidentnumber="14130686" address="5500 Jackson Street, Pittsburgh, PA 15206, USA" type="OFFENSE" description="*********************************************** &lt;br/&gt;Theft by Unlawful Taking or Disposition.&lt;br/&gt;"/><marker lat="40.4676687" lng="-79.926783" zone="Zone 5" incidentdate="2014-07-07" incidenttime="05:00:00" incidentnumber="14130821" address="500 Mellon Street, Pittsburgh, PA 15206, USA" type="OFFENSE" description="*********************************************** &lt;br/&gt;Harassment (Non-Specific)&lt;br/&gt;"/><marker lat="40.4306913" lng="-80.0076041" zone="Zone 3" incidentdate="2014-07-07" incidenttime="05:10:00" incidentnumber="14130691" address="200 Shiloh Street, Pittsburgh, PA 15211, USA" type="OFFENSE" description="*********************************************** &lt;br/&gt;9999 - (Misc. Incident):&lt;br/&gt;"/><marker lat="40.4621302" lng="-79.9926978" zone="Zone 1" incidentdate="2014-07-07" incidenttime="05:20:00" incidentnumber="14130820" address="Zang Way, Pittsburgh, PA 15212, USA" type="OFFENSE" description="*********************************************** &lt;br/&gt;Burglary.&lt;br/&gt;"/><marker lat="40.4632982" lng="-79.91209889999999" zone="Zone 5" incidentdate="2014-07-07" incidenttime="05:54:00" incidentnumber="14130708" address="500 Paulson Avenue, Pittsburgh, PA 15206, USA" type="OFFENSE" description="*********************************************** &lt;br/&gt;Simple Assault - Attempts by Physical Menace&lt;br/&gt;Burglary.&lt;br/&gt;"/><marker lat="40.4555167" lng="-79.89701269999999" zone="Zone 5" incidentdate="2014-07-07" incidenttime="06:00:00" incidentnumber="14130718" address="North Homewood Avenue, Pittsburgh, PA 15208, USA" type="OFFENSE" description="*********************************************** &lt;br/&gt;Criminal Mischief.&lt;br/&gt;"/><marker lat="40.3937208" lng="-80.0199714" zone="Zone 6" incidentdate="2014-07-07" incidenttime="06:05:00" incidentnumber="14130759" address="800 Brookline Boulevard, Pittsburgh, PA 15226, USA" type="OFFENSE" description="*********************************************** &lt;br/&gt;Robbery.&lt;br/&gt;"/><marker lat="40.4717173" lng="-79.9669065" zone="Zone 2" incidentdate="2014-07-07" incidenttime="06:18:00" incidentnumber="14130745" address="40th Street Bridge, Pittsburgh, PA, USA" type="OFFENSE" description="*********************************************** &lt;br/&gt;Dead on Arrival (DOA)&lt;br/&gt;"/><marker lat="40.392664" lng="-79.985432" zone="Zone 3" incidentdate="2014-07-07" incidenttime="06:30:00" incidentnumber="14131134" address="2100 Hazeldell Street, Pittsburgh, PA 15210, USA" type="OFFENSE" description="*********************************************** &lt;br/&gt;Criminal Mischief.&lt;br/&gt;"/><marker lat="40.4556477" lng="-79.9276651" zone="Zone 4" incidentdate="2014-07-07" incidenttime="06:30:00" incidentnumber="14130747" address="Shadyside, Pittsburgh, PA, USA" type="OFFENSE" description="*********************************************** &lt;br/&gt;Burglary.&lt;br/&gt;"/><marker lat="40.4270319" lng="-80.00923499999999" zone="Zone 3" incidentdate="2014-07-07" incidenttime="06:45:00" incidentnumber="14130717" address="100 Southern Avenue, Pittsburgh, PA 15211, USA" type="OFFENSE" description="*********************************************** &lt;br/&gt;Indirect Criminal Contempt&lt;br/&gt;Indirect Criminal Contempt&lt;br/&gt;"/><marker lat="40.4270319" lng="-80.00923499999999" zone="Zone 3" incidentdate="2014-07-07" incidenttime="06:45:00" incidentnumber="14130717" address="100 Southern Avenue, Pittsburgh, PA 15211, USA" type="ARREST" description="*********************************************** &lt;br/&gt;Indirect Criminal Contempt&lt;br/&gt;Indirect Criminal Contempt&lt;br/&gt;"/><marker lat="40.402152" lng="-79.986238" zone="Zone 3" incidentdate="2014-07-07" incidenttime="07:00:00" incidentnumber="14130803" address="200 Birmingham Avenue, Pittsburgh, PA 15210, USA" type="OFFENSE" description="*********************************************** &lt;br/&gt;Criminal Mischief.&lt;br/&gt;Theft from Vehicle&lt;br/&gt;"/><marker lat="40.392664" lng="-79.985432" zone="Zone 3" incidentdate="2014-07-07" incidenttime="07:00:00" incidentnumber="14130773" address="2100 Hazeldell Street, Pittsburgh, PA 15210, USA" type="OFFENSE" description="*********************************************** &lt;br/&gt;Criminal Mischief.&lt;br/&gt;"/><marker lat="40.4289468" lng="-80.04320799999999" zone="Zone 6" incidentdate="2014-07-07" incidenttime="07:00:00" incidentnumber="14130748" address="Alcon Street, PA 15220, USA" type="OFFENSE" description="*********************************************** &lt;br/&gt;Criminal Mischief.&lt;br/&gt;"/><marker lat="40.4473466" lng="-80.0521081" zone="Zone 6" incidentdate="2014-07-07" incidenttime="07:10:00" incidentnumber="14130722" address="1500 Crucible Street, Pittsburgh, PA 15205, USA" type="OFFENSE" description="*********************************************** &lt;br/&gt;Simple Assault - Intent., Know., Reckless.Cause Bod. Injury&lt;br/&gt;"/><marker lat="40.4810303" lng="-79.95268" zone="Zone 2" incidentdate="2014-07-07" incidenttime="07:15:00" incidentnumber="14130827" address="100 McCandless Avenue, Pittsburgh, PA 15201, USA" type="OFFENSE" description="*********************************************** &lt;br/&gt;Theft by Unlawful Taking or Disposition.&lt;br/&gt;"/><marker lat="40.402152" lng="-79.986238" zone="Zone 3" incidentdate="2014-07-07" incidenttime="07:30:00" incidentnumber="14130741" address="200 Birmingham Avenue, Pittsburgh, PA 15210, USA" type="OFFENSE" description="*********************************************** &lt;br/&gt;Criminal Mischief.&lt;br/&gt;Theft from Vehicle&lt;br/&gt;"/><marker lat="40.4674255" lng="-79.9649721" zone="Zone 2" incidentdate="2014-07-07" incidenttime="08:00:00" incidentnumber="14130751" address="38th Street &amp; Charlotte Street, Pittsburgh, PA 15201, USA" type="OFFENSE" description="*********************************************** &lt;br/&gt;Accidents Involving Damage to Unattended Veh.or Prop.&lt;br/&gt;"/><marker lat="40.427828" lng="-79.98063169999999" zone="Zone 3" incidentdate="2014-07-07" incidenttime="08:00:00" incidentnumber="14130862" address="1800 Sarah Street, Pittsburgh, PA 15203, USA" type="OFFENSE" description="*********************************************** &lt;br/&gt;Criminal Mischief.&lt;br/&gt;"/><marker lat="40.4022519" lng="-79.9884323" zone="Zone 3" incidentdate="2014-07-07" incidenttime="08:00:00" incidentnumber="14130764" address="100 Birmingham Avenue, Pittsburgh, PA 15210, USA" type="OFFENSE" description="*********************************************** &lt;br/&gt;Criminal Mischief.&lt;br/&gt;"/><marker lat="40.462004" lng="-79.940671" zone="Zone 5" incidentdate="2014-07-07" incidenttime="08:15:00" incidentnumber="14130740" address="300 South Pacific Avenue, Pittsburgh, PA 15224, USA" type="OFFENSE" description="*********************************************** &lt;br/&gt;Accidental Fire&lt;br/&gt;"/><marker lat="40.3866705" lng="-79.9981071" zone="Zone 3" incidentdate="2014-07-07" incidenttime="08:25:00" incidentnumber="14130777" address="200 Vineland Street, Pittsburgh, PA 15234, USA" type="OFFENSE" description="*********************************************** &lt;br/&gt;Theft from Vehicle&lt;br/&gt;"/><marker lat="40.4506656" lng="-80.0235811" zone="Zone 1" incidentdate="2014-07-07" incidenttime="08:29:00" incidentnumber="14130746" address="1300 Western Avenue, Pittsburgh, PA 15233, USA" type="OFFENSE" description="*********************************************** &lt;br/&gt;False  Burglar Alarm&lt;br/&gt;"/><marker lat="40.402152" lng="-79.986238" zone="Zone 3" incidentdate="2014-07-07" incidenttime="08:30:00" incidentnumber="14130765" address="200 Birmingham Avenue, Pittsburgh, PA 15210, USA" type="OFFENSE" description="*********************************************** &lt;br/&gt;Criminal Mischief.&lt;br/&gt;Theft from Vehicle&lt;br/&gt;"/><marker lat="40.4196689" lng="-79.9281666" zone="Zone 4" incidentdate="2014-07-07" incidenttime="08:30:00" incidentnumber="14130767" address="800 Hazelwood Avenue, Pittsburgh, PA 15217, USA" type="OFFENSE" description="*********************************************** &lt;br/&gt;Accidents Involving Damage to Unattended Veh.or Prop.&lt;br/&gt;"/><marker lat="40.4286551" lng="-79.9897532" zone="Zone 3" incidentdate="2014-07-07" incidenttime="08:52:00" incidentnumber="14130763" address="900 East Carson Street, Pittsburgh, PA 15203, USA" type="OFFENSE" description="*********************************************** &lt;br/&gt;Possession of Controlled Substance&lt;br/&gt;Possession of Controlled Substance&lt;br/&gt;"/><marker lat="40.4286551" lng="-79.9897532" zone="Zone 3" incidentdate="2014-07-07" incidenttime="08:55:00" incidentnumber="14130763" address="900 East Carson Street, Pittsburgh, PA 15203, USA" type="ARREST" description="*********************************************** &lt;br/&gt;Possession of Controlled Substance&lt;br/&gt;Possession of Controlled Substance&lt;br/&gt;"/><marker lat="40.4471442" lng="-79.8951648" zone="Zone 4" incidentdate="2014-07-07" incidenttime="08:55:00" incidentnumber="14130794" address="Penn Avenue &amp; North Braddock Avenue, Pittsburgh, PA 15208, USA" type="OFFENSE" description="*********************************************** &lt;br/&gt;Accidents Involving Damage to Attended Veh. or Property&lt;br/&gt;"/><marker lat="40.3866705" lng="-79.9981071" zone="Zone 3" incidentdate="2014-07-07" incidenttime="09:00:00" incidentnumber="14131120" address="200 Vineland Street, Pittsburgh, PA 15234, USA" type="OFFENSE" description="*********************************************** &lt;br/&gt;Theft from Vehicle&lt;br/&gt;"/><marker lat="40.3866705" lng="-79.9981071" zone="Zone 3" incidentdate="2014-07-07" incidenttime="09:00:00" incidentnumber="14131093" address="200 Vineland Street, Pittsburgh, PA 15234, USA" type="OFFENSE" description="*********************************************** &lt;br/&gt;Theft from Vehicle&lt;br/&gt;"/><marker lat="40.4066255" lng="-79.9326464" zone="Zone 4" incidentdate="2014-07-07" incidenttime="09:00:00" incidentnumber="14130823" address="900 Roselle Court, Pittsburgh, PA 15207, USA" type="OFFENSE" description="*********************************************** &lt;br/&gt;Identity Theft&lt;br/&gt;"/><marker lat="40.43235019999999" lng="-79.9231597" zone="Zone 4" incidentdate="2014-07-07" incidenttime="09:15:00" incidentnumber="14115433" address="2200 Murray Avenue, Pittsburgh, PA 15217, USA" type="ARREST" description="*********************************************** &lt;br/&gt;Retail Theft; takes possession of, carries away, or transfers displayed merchandise&lt;br/&gt;"/><marker lat="40.42302900000001" lng="-79.903311" zone="Zone 4" incidentdate="2014-07-07" incidenttime="09:18:00" incidentnumber="14130771" address="1200 Windermere Drive, Pittsburgh, PA 15218, USA" type="OFFENSE" description="*********************************************** &lt;br/&gt;Harassment (Non-Specific)&lt;br/&gt;"/><marker lat="40.456338" lng="-79.9537326" zone="Zone 4" incidentdate="2014-07-07" incidenttime="09:30:00" incidentnumber="14130787" address="Melwood Avenue, Pittsburgh, PA, USA" type="OFFENSE" description="*********************************************** &lt;br/&gt;Criminal Mischief.&lt;br/&gt;"/><marker lat="40.3892755" lng="-80.01708459999999" zone="Zone 6" incidentdate="2014-07-07" incidenttime="09:50:00" incidentnumber="14130785" address="1100 Woodbourne Avenue, Pittsburgh, PA 15226, USA" type="OFFENSE" description="*********************************************** &lt;br/&gt;False  Burglar Alarm&lt;br/&gt;"/><marker lat="40.4377585" lng="-79.9958813" zone="Zone 2" incidentdate="2014-07-07" incidenttime="10:00:00" incidentnumber="14130977" address="400 Ross Street, Pittsburgh, PA 15221, USA" type="OFFENSE" description="*********************************************** &lt;br/&gt;Indirect Criminal Contempt&lt;br/&gt;"/><marker lat="40.429257" lng="-79.99465699999999" zone="Zone 3" incidentdate="2014-07-07" incidenttime="10:00:00" incidentnumber="14130878" address="500 Bingham Street, Pittsburgh, PA 15203, USA" type="OFFENSE" description="*********************************************** &lt;br/&gt;Lost Property&lt;br/&gt;"/><marker lat="40.480086" lng="-80.037712" zone="Zone 1" incidentdate="2014-07-07" incidenttime="10:03:00" incidentnumber="14131224" address="1500 Letort Street, Pittsburgh, PA 15212, USA" type="OFFENSE" description="*********************************************** &lt;br/&gt;9999 - (Misc. Incident):&lt;br/&gt;"/><marker lat="40.386895" lng="-79.983508" zone="Zone 3" incidentdate="2014-07-07" incidenttime="10:48:00" incidentnumber="14130822" address="2400 Brownsville Road, Pittsburgh, PA 15210, USA" type="OFFENSE" description="*********************************************** &lt;br/&gt;Possession of Controlled Substance&lt;br/&gt;Possession w/ Intent to Del. Controlled Substance&lt;br/&gt;Marijuana: Possession Small Amount&lt;br/&gt;Paraphernalia - Use or Possession&lt;br/&gt;Tampering with or Fabricating Physical Evidence.&lt;br/&gt;Criminal Use of Communication&lt;br/&gt;Possession of Controlled Substance&lt;br/&gt;Possession w/ Intent to Del. Controlled Substance&lt;br/&gt;Marijuana: Possession Small Amount&lt;br/&gt;Paraphernalia - Use or Possession&lt;br/&gt;Tampering with or Fabricating Physical Evidence.&lt;br/&gt;"/><marker lat="40.386895" lng="-79.983508" zone="Zone 3" incidentdate="2014-07-07" incidenttime="10:48:00" incidentnumber="14130822" address="2400 Brownsville Road, Pittsburgh, PA 15210, USA" type="ARREST" description="*********************************************** &lt;br/&gt;Possession of Controlled Substance&lt;br/&gt;Possession w/ Intent to Del. Controlled Substance&lt;br/&gt;Marijuana: Possession Small Amount&lt;br/&gt;Paraphernalia - Use or Possession&lt;br/&gt;Tampering with or Fabricating Physical Evidence.&lt;br/&gt;Criminal Use of Communication&lt;br/&gt;Possession of Controlled Substance&lt;br/&gt;Possession w/ Intent to Del. Controlled Substance&lt;br/&gt;Marijuana: Possession Small Amount&lt;br/&gt;Paraphernalia - Use or Possession&lt;br/&gt;Tampering with or Fabricating Physical Evidence.&lt;br/&gt;"/><marker lat="40.435467" lng="-79.996404" zone="Zone 2" incidentdate="2014-07-07" incidenttime="11:00:00" incidentnumber="14055169" address="600 1st Avenue, Pittsburgh, PA 15219, USA" type="ARREST" description="*********************************************** &lt;br/&gt;Burglary.&lt;br/&gt;Failure To Appear/Arrest on Attachment Order&lt;br/&gt;"/><marker lat="40.465871" lng="-79.93961399999999" zone="Zone 5" incidentdate="2014-07-07" incidenttime="11:20:00" incidentnumber="14130848" address="5200 Broad Street, Pittsburgh, PA 15224, USA" type="OFFENSE" description="*********************************************** &lt;br/&gt;Harassment Communicates Repeatedly in Anonymous Manner&lt;br/&gt;"/><marker lat="40.4316664" lng="-79.9528042" zone="Zone 4" incidentdate="2014-07-07" incidenttime="11:30:00" incidentnumber="14130884" address="3300 Parkview Avenue, Pittsburgh, PA 15213, USA" type="OFFENSE" description="*********************************************** &lt;br/&gt;Identity Theft&lt;br/&gt;"/><marker lat="40.4745602" lng="-80.0022146" zone="Zone 1" incidentdate="2014-07-07" incidenttime="11:33:00" incidentnumber="14130850" address="Penfort Street, Pittsburgh, PA 15214, USA" type="OFFENSE" description="*********************************************** &lt;br/&gt;Simple Assault.&lt;br/&gt;Terroristic Threats.&lt;br/&gt;Defiant Trespass - Fencing or Other Enclosure&lt;br/&gt;"/><marker lat="40.4642133" lng="-79.9254675" zone="Zone 5" incidentdate="2014-07-07" incidenttime="11:45:00" incidentnumber="14122960" address="5900 Station Street, Pittsburgh, PA 15206, USA" type="ARREST" description="*********************************************** &lt;br/&gt;Paraphernalia - Use or Possession&lt;br/&gt;Registration and Certificate of Title Required.&lt;br/&gt;Driving While Operating Privilege is Suspended or Revoked.&lt;br/&gt;Operation of Vehicle without Official Certif. of Inspection&lt;br/&gt;Paraphernalia - Use or Possession&lt;br/&gt;Registration and Certificate of Title Required.&lt;br/&gt;Driving While Operating Privilege is Suspended or Revoked.&lt;br/&gt;Operation of Vehicle without Official Certif. of Inspection&lt;br/&gt;"/><marker lat="40.4516009" lng="-79.89186339999999" zone="Zone 5" incidentdate="2014-07-07" incidenttime="11:50:00" incidentnumber="14125467" address="North Braddock Avenue &amp; Cassina Way, Pittsburgh, PA 15208, USA" type="ARREST" description="*********************************************** &lt;br/&gt;Registration Card to be Signed and Exhibited on Demand.&lt;br/&gt;Driving While Operating Privilege is Suspended or Revoked.&lt;br/&gt;Stop Signs and Yield Signs.&lt;br/&gt;General Lighting Requirements.&lt;br/&gt;Habitual Offenders&lt;br/&gt;Registration Card to be Signed and Exhibited on Demand.&lt;br/&gt;Driving While Operating Privilege is Suspended or Revoked.&lt;br/&gt;Stop Signs and Yield Signs.&lt;br/&gt;General Lighting Requirements.&lt;br/&gt;Habitual Offenders&lt;br/&gt;"/><marker lat="40.4565299" lng="-79.9364408" zone="Zone 4" incidentdate="2014-07-07" incidenttime="11:59:00" incidentnumber="13172847" address="5500 Centre Avenue, Pittsburgh, PA 15232, USA" type="ARREST" description="*********************************************** &lt;br/&gt;False Reports to Law Enforcement Authorities.&lt;br/&gt;False Reports to Law Enforcement Authorities.&lt;br/&gt;"/><marker lat="40.4392788" lng="-80.0012098" zone="Zone 2" incidentdate="2014-07-07" incidenttime="12:00:00" incidentnumber="14130899" address="300 4th Avenue, Pittsburgh, PA 15222, USA" type="OFFENSE" description="*********************************************** &lt;br/&gt;Theft from Vehicle&lt;br/&gt;"/><marker lat="40.433881" lng="-80.031424" zone="Zone 6" incidentdate="2014-07-07" incidenttime="12:00:00" incidentnumber="14130784" address="1900 Woodville Avenue, Pittsburgh, PA 15220, USA" type="OFFENSE" description="*********************************************** &lt;br/&gt;CRIMINAL MISCHIEF- Intentionally Damage Property (By Graffiti, Aerosol Spray Paint, Broad Tip Marker, or Similar)&lt;br/&gt;Marker, or Similar)&lt;br/&gt;"/><marker lat="40.4374623" lng="-80.0393484" zone="Zone 6" incidentdate="2014-07-07" incidenttime="12:00:00" incidentnumber="14130861" address="200 Buttonwood Street, Pittsburgh, PA 15220, USA" type="OFFENSE" description="*********************************************** &lt;br/&gt;False  Burglar Alarm&lt;br/&gt;"/><marker lat="40.4683745" lng="-80.0252354" zone="Zone 1" incidentdate="2014-07-07" incidenttime="12:07:00" incidentnumber="14130919" address="1100 Highwood Street, Pittsburgh, PA 15212, USA" type="OFFENSE" description="*********************************************** &lt;br/&gt;Theft by Unlawful Taking or Disposition.&lt;br/&gt;"/><marker lat="40.4635227" lng="-79.90330630000001" zone="Zone 5" incidentdate="2014-07-07" incidenttime="13:00:00" incidentnumber="14130936" address="6800 Lyric Street, Pittsburgh, PA 15206, USA" type="OFFENSE" description="*********************************************** &lt;br/&gt;Burglary.&lt;br/&gt;"/><marker lat="40.3924193" lng="-80.0245801" zone="Zone 6" incidentdate="2014-07-07" incidenttime="13:00:00" incidentnumber="14131014" address="2800 Castlegate Avenue, Pittsburgh, PA 15226, USA" type="OFFENSE" description="*********************************************** &lt;br/&gt;Accidents Involving Damage to Unattended Veh.or Prop.&lt;br/&gt;"/><marker lat="40.4649182" lng="-79.9108196" zone="Zone 5" incidentdate="2014-07-07" incidenttime="13:10:00" incidentnumber="14130930" address="200 Shetland Street, Pittsburgh, PA 15206, USA" type="OFFENSE" description="*********************************************** &lt;br/&gt;Missing Juvenile&lt;br/&gt;"/><marker lat="40.4237922" lng="-79.95216959999999" zone="Zone 2" incidentdate="2014-07-07" incidenttime="13:14:00" incidentnumber="14084551" address="900 Second Avenue, Pittsburgh, PA 15207, USA" type="ARREST" description="*********************************************** &lt;br/&gt;Possession of Controlled Substance&lt;br/&gt;Paraphernalia - Use or Possession&lt;br/&gt;Contraband.&lt;br/&gt;"/><marker lat="40.4272357" lng="-79.9549965" zone="Zone 2" incidentdate="2014-07-07" incidenttime="13:20:00" incidentnumber="14120844" address="Second Avenue, Pittsburgh, PA, USA" type="ARREST" description="*********************************************** &lt;br/&gt;Theft by Unlawful Taking or Disposition - Movable item&lt;br/&gt;Theft by Unlawful Taking or Disposition - Movable item&lt;br/&gt;"/><marker lat="40.470647" lng="-79.92664979999999" zone="Zone 5" incidentdate="2014-07-07" incidenttime="13:25:00" incidentnumber="14130927" address="North Negley Avenue &amp; Baywood Street, Pittsburgh, PA 15206, USA" type="OFFENSE" description="*********************************************** &lt;br/&gt;Bench Warrant&lt;br/&gt;Obedience to Traffic-Control Devices.&lt;br/&gt;Bench Warrant&lt;br/&gt;"/><marker lat="40.470647" lng="-79.92664979999999" zone="Zone 5" incidentdate="2014-07-07" incidenttime="13:25:00" incidentnumber="14130927" address="North Negley Avenue &amp; Baywood Street, Pittsburgh, PA 15206, USA" type="ARREST" description="*********************************************** &lt;br/&gt;Bench Warrant&lt;br/&gt;Obedience to Traffic-Control Devices.&lt;br/&gt;Bench Warrant&lt;br/&gt;"/><marker lat="40.4576858" lng="-80.0671188" zone="Zone 6" incidentdate="2014-07-07" incidenttime="13:30:00" incidentnumber="14130953" address="3500 Chartiers Avenue, Pittsburgh, PA 15204, USA" type="OFFENSE" description="*********************************************** &lt;br/&gt;Burglary.&lt;br/&gt;"/><marker lat="40.4258781" lng="-79.9332613" zone="Zone 6" incidentdate="2014-07-07" incidenttime="13:30:00" incidentnumber="14131298" address="Greenfield, Pittsburgh, PA, USA" type="OFFENSE" description="*********************************************** &lt;br/&gt;Criminal Mischief.&lt;br/&gt;"/><marker lat="40.4658656" lng="-79.9382267" zone="Zone 5" incidentdate="2014-07-07" incidenttime="13:36:00" incidentnumber="14130950" address="5300 Broad Street, Pittsburgh, PA 15224, USA" type="OFFENSE" description="*********************************************** &lt;br/&gt;Dogs at Large Prohibited&lt;br/&gt;"/><marker lat="40.4350442" lng="-79.9807826" zone="Zone 2" incidentdate="2014-07-07" incidenttime="13:50:00" incidentnumber="13140259" address="Second Avenue, Pittsburgh, PA, USA" type="ARREST" description="*********************************************** &lt;br/&gt;Paraphernalia - Use or Possession&lt;br/&gt;"/><marker lat="40.4272357" lng="-79.9549965" zone="Zone 2" incidentdate="2014-07-07" incidenttime="13:50:00" incidentnumber="14091011" address="Second Avenue, Pittsburgh, PA, USA" type="ARREST" description="*********************************************** &lt;br/&gt;Receiving Stolen Property.&lt;br/&gt;"/><marker lat="40.4911579" lng="-80.0199574" zone="Zone 1" incidentdate="2014-07-07" incidenttime="14:15:00" incidentnumber="14026116" address="4000 Perrysville Avenue, Pittsburgh, PA 15214, USA" type="ARREST" description="*********************************************** &lt;br/&gt;Simple Assault.&lt;br/&gt;Unlawful Restraint.&lt;br/&gt;"/><marker lat="40.4405866" lng="-79.9580976" zone="Zone 4" incidentdate="2014-07-07" incidenttime="14:15:00" incidentnumber="14073056" address="3600 Forbes Avenue, University of Pittsburgh, Pittsburgh, PA 15213, USA" type="ARREST" description="*********************************************** &lt;br/&gt;Robbery.&lt;br/&gt;Robbery.&lt;br/&gt;"/><marker lat="40.455846" lng="-79.9151368" zone="Zone 5" incidentdate="2014-07-07" incidenttime="14:15:00" incidentnumber="14101177" address="Penn Avenue, PA, USA" type="ARREST" description="*********************************************** &lt;br/&gt;Robbery.&lt;br/&gt;"/><marker lat="40.4563377" lng="-80.00208769999999" zone="Zone 1" incidentdate="2014-07-07" incidenttime="14:38:00" incidentnumber="14130983" address="East North Avenue, Pittsburgh, PA 15212, USA" type="OFFENSE" description="*********************************************** &lt;br/&gt;Aided Case&lt;br/&gt;"/><marker lat="40.4635107" lng="-79.9489435" zone="Zone 5" incidentdate="2014-07-07" incidenttime="14:52:00" incidentnumber="14130990" address="200 Pearl Street, Pittsburgh, PA 15224, USA" type="OFFENSE" description="*********************************************** &lt;br/&gt;Aided Case&lt;br/&gt;"/><marker lat="40.4718639" lng="-80.0368864" zone="Zone 1" incidentdate="2014-07-07" incidenttime="15:00:00" incidentnumber="14131010" address="3100 California Avenue, Pittsburgh, PA 15212, USA" type="OFFENSE" description="*********************************************** &lt;br/&gt;Aggravated Assault.&lt;br/&gt;Theft by Deception.&lt;br/&gt;"/><marker lat="40.4414658" lng="-79.9802259" zone="Zone 2" incidentdate="2014-07-07" incidenttime="15:00:00" incidentnumber="14131151" address="Reed Street, Pittsburgh, PA 15219, USA" type="OFFENSE" description="*********************************************** &lt;br/&gt;Access Device Fraud&lt;br/&gt;"/><marker lat="40.435467" lng="-79.996404" zone="Zone 2" incidentdate="2014-07-07" incidenttime="15:00:00" incidentnumber="14121094" address="600 1st Avenue, Pittsburgh, PA 15219, USA" type="OFFENSE" description="*********************************************** &lt;br/&gt;Summary Warrants&lt;br/&gt;"/><marker lat="40.435467" lng="-79.996404" zone="Zone 2" incidentdate="2014-07-07" incidenttime="15:00:00" incidentnumber="14121087" address="600 1st Avenue, Pittsburgh, PA 15219, USA" type="OFFENSE" description="*********************************************** &lt;br/&gt;Summary Warrants&lt;br/&gt;"/><marker lat="40.435467" lng="-79.996404" zone="Zone 2" incidentdate="2014-07-07" incidenttime="15:00:00" incidentnumber="14121086" address="600 1st Avenue, Pittsburgh, PA 15219, USA" type="OFFENSE" description="*********************************************** &lt;br/&gt;Summary Warrants&lt;br/&gt;"/><marker lat="40.435467" lng="-79.996404" zone="Zone 2" incidentdate="2014-07-07" incidenttime="15:00:00" incidentnumber="14121084" address="600 1st Avenue, Pittsburgh, PA 15219, USA" type="OFFENSE" description="*********************************************** &lt;br/&gt;Summary Warrants&lt;br/&gt;Summary Warrants&lt;br/&gt;"/><marker lat="40.43235019999999" lng="-79.9231597" zone="Zone 4" incidentdate="2014-07-07" incidenttime="15:00:00" incidentnumber="14131088" address="2200 Murray Avenue, Pittsburgh, PA 15217, USA" type="OFFENSE" description="*********************************************** &lt;br/&gt;Criminal Mischief.&lt;br/&gt;Burglary.&lt;br/&gt;"/><marker lat="40.4718639" lng="-80.0368864" zone="Zone 1" incidentdate="2014-07-07" incidenttime="15:56:00" incidentnumber="14131016" address="3100 California Avenue, Pittsburgh, PA 15212, USA" type="OFFENSE" description="*********************************************** &lt;br/&gt;Criminal Mischief.&lt;br/&gt;"/><marker lat="40.42171010000001" lng="-79.98688349999999" zone="Zone 3" incidentdate="2014-07-07" incidenttime="16:00:00" incidentnumber="14131061" address="Sharon Street, Pittsburgh, PA, USA" type="ARREST" description="*********************************************** &lt;br/&gt;Bench Warrant&lt;br/&gt;Bench Warrant&lt;br/&gt;"/><marker lat="40.42171010000001" lng="-79.98688349999999" zone="Zone 3" incidentdate="2014-07-07" incidenttime="16:00:00" incidentnumber="14131061" address="Sharon Street, Pittsburgh, PA, USA" type="OFFENSE" description="*********************************************** &lt;br/&gt;Bench Warrant&lt;br/&gt;Bench Warrant&lt;br/&gt;"/><marker lat="40.4418216" lng="-79.9602943" zone="Zone 4" incidentdate="2014-07-07" incidenttime="16:00:00" incidentnumber="14131063" address="3500 Victoria Street, University of Pittsburgh, Pittsburgh, PA 15213, USA" type="OFFENSE" description="*********************************************** &lt;br/&gt;Theft by Unlawful Taking or Disposition.&lt;br/&gt;"/><marker lat="40.4196104" lng="-79.92716159999999" zone="Zone 4" incidentdate="2014-07-07" incidenttime="16:00:00" incidentnumber="14129568" address="Beechwood Boulevard &amp; Hazelwood Avenue, Pittsburgh, PA 15217, USA" type="ARREST" description="*********************************************** &lt;br/&gt;Accidents Involving Damage to Attended Veh. or Property&lt;br/&gt;Accidents Involving Damage to Attended Veh. or Property&lt;br/&gt;"/><marker lat="40.399833" lng="-79.982843" zone="Zone 3" incidentdate="2014-07-07" incidenttime="16:15:00" incidentnumber="14131043" address="300 Alries Street, Pittsburgh, PA 15210, USA" type="OFFENSE" description="*********************************************** &lt;br/&gt;Dead on Arrival (DOA)&lt;br/&gt;"/><marker lat="40.4515939" lng="-80.02389660000001" zone="Zone 1" incidentdate="2014-07-07" incidenttime="16:22:00" incidentnumber="14131051" address="1300 Page Street, Pittsburgh, PA 15233, USA" type="OFFENSE" description="*********************************************** &lt;br/&gt;Simple Assault.&lt;br/&gt;Robbery.&lt;br/&gt;Simple Assault.&lt;br/&gt;Robbery.&lt;br/&gt;"/><marker lat="40.44494299999999" lng="-79.9960274" zone="Zone 2" incidentdate="2014-07-07" incidenttime="16:30:00" incidentnumber="14131053" address="10th Street, Pittsburgh, PA 15222, USA" type="OFFENSE" description="*********************************************** &lt;br/&gt;Theft by Unlawful Taking or Disposition.&lt;br/&gt;"/><marker lat="40.4382314" lng="-79.99326560000002" zone="Zone 2" incidentdate="2014-07-07" incidenttime="16:30:00" incidentnumber="14131098" address="700 Watson Street, Duquesne University, Pittsburgh, PA 15219, USA" type="OFFENSE" description="*********************************************** &lt;br/&gt;Theft by Unlawful Taking or Disposition.&lt;br/&gt;"/><marker lat="40.41075" lng="-79.94050200000001" zone="Zone 4" incidentdate="2014-07-07" incidenttime="16:30:00" incidentnumber="14121096" address="300 Flowers Avenue, Pittsburgh, PA 15207, USA" type="OFFENSE" description="*********************************************** &lt;br/&gt;Summary Warrants&lt;br/&gt;"/><marker lat="40.4515939" lng="-80.02389660000001" zone="Zone 1" incidentdate="2014-07-07" incidenttime="16:35:00" incidentnumber="14131051" address="1300 Page Street, Pittsburgh, PA 15233, USA" type="ARREST" description="*********************************************** &lt;br/&gt;Simple Assault.&lt;br/&gt;Robbery.&lt;br/&gt;Simple Assault.&lt;br/&gt;Robbery.&lt;br/&gt;"/><marker lat="40.4511139" lng="-79.953519" zone="Zone 4" incidentdate="2014-07-07" incidenttime="17:00:00" incidentnumber="14131101" address="4400 Centre Avenue, Pittsburgh, PA 15213, USA" type="OFFENSE" description="*********************************************** &lt;br/&gt;Theft by Unlawful Taking or Disposition - Movable item&lt;br/&gt;"/><marker lat="40.4156606" lng="-80.0197172" zone="Zone 6" incidentdate="2014-07-07" incidenttime="17:00:00" incidentnumber="14131163" address="1200 Westfield Street, Pittsburgh, PA 15216, USA" type="OFFENSE" description="*********************************************** &lt;br/&gt;Burglary.&lt;br/&gt;"/><marker lat="40.4687171" lng="-79.9622912" zone="Zone 2" incidentdate="2014-07-07" incidenttime="17:12:00" incidentnumber="14131089" address="Butler Street &amp; 40th Street, Pittsburgh, PA 15201, USA" type="OFFENSE" description="*********************************************** &lt;br/&gt;Marijuana: Possession Small Amount&lt;br/&gt;Marijuana: Possession Small Amount&lt;br/&gt;"/><marker lat="40.4687171" lng="-79.9622912" zone="Zone 2" incidentdate="2014-07-07" incidenttime="17:15:00" incidentnumber="14131089" address="Butler Street &amp; 40th Street, Pittsburgh, PA 15201, USA" type="ARREST" description="*********************************************** &lt;br/&gt;Marijuana: Possession Small Amount&lt;br/&gt;Marijuana: Possession Small Amount&lt;br/&gt;"/><marker lat="40.4471225" lng="-79.9832551" zone="Zone 2" incidentdate="2014-07-07" incidenttime="17:15:00" incidentnumber="14125689" address="Ledlie Street, Pittsburgh, PA 15219, USA" type="ARREST" description="*********************************************** &lt;br/&gt;Terroristic Threats.&lt;br/&gt;"/><marker lat="40.46152130000001" lng="-80.0157685" zone="Zone 1" incidentdate="2014-07-07" incidenttime="17:34:00" incidentnumber="14131090" address="Overlook Street, Pittsburgh, PA 15214, USA" type="OFFENSE" description="*********************************************** &lt;br/&gt;Burglary.&lt;br/&gt;"/><marker lat="40.4403933" lng="-79.9627964" zone="Zone 4" incidentdate="2014-07-07" incidenttime="17:45:00" incidentnumber="14121097" address="200 Chesterfield Road, Pittsburgh, PA 15213, USA" type="OFFENSE" description="*********************************************** &lt;br/&gt;Summary Warrants&lt;br/&gt;"/><marker lat="40.465693" lng="-79.929008" zone="Zone 5" incidentdate="2014-07-07" incidenttime="18:24:00" incidentnumber="14131146" address="300 North Negley Avenue, Pittsburgh, PA 15206, USA" type="OFFENSE" description="*********************************************** &lt;br/&gt;Theft by Unlawful Taking or Disposition.&lt;br/&gt;"/><marker lat="40.4279347" lng="-79.97468789999999" zone="Zone 3" incidentdate="2014-07-07" incidenttime="18:25:00" incidentnumber="14131145" address="South 22nd Street, Pittsburgh, PA 15203, USA" type="OFFENSE" description="*********************************************** &lt;br/&gt;Paraphernalia - Use or Possession&lt;br/&gt;Defiant Trespass - Fencing or Other Enclosure&lt;br/&gt;Tampering with or Fabricating Physical Evidence.&lt;br/&gt;Paraphernalia - Use or Possession&lt;br/&gt;Defiant Trespass - Fencing or Other Enclosure&lt;br/&gt;Tampering with or Fabricating Physical Evidence.&lt;br/&gt;"/><marker lat="40.4279347" lng="-79.97468789999999" zone="Zone 3" incidentdate="2014-07-07" incidenttime="18:30:00" incidentnumber="14131145" address="South 22nd Street, Pittsburgh, PA 15203, USA" type="ARREST" description="*********************************************** &lt;br/&gt;Paraphernalia - Use or Possession&lt;br/&gt;Defiant Trespass - Fencing or Other Enclosure&lt;br/&gt;Tampering with or Fabricating Physical Evidence.&lt;br/&gt;Paraphernalia - Use or Possession&lt;br/&gt;Defiant Trespass - Fencing or Other Enclosure&lt;br/&gt;Tampering with or Fabricating Physical Evidence.&lt;br/&gt;"/><marker lat="40.45465009999999" lng="-80.0129013" zone="Zone 1" incidentdate="2014-07-07" incidenttime="18:39:00" incidentnumber="14131165" address="600 West North Avenue, Pittsburgh, PA 15212, USA" type="OFFENSE" description="*********************************************** &lt;br/&gt;Aided Case&lt;br/&gt;"/><marker lat="40.4199809" lng="-79.99886959999999" zone="Zone 3" incidentdate="2014-07-07" incidenttime="18:50:00" incidentnumber="14131183" address="Climax Street, Pittsburgh, PA 15210, USA" type="OFFENSE" description="*********************************************** &lt;br/&gt;Dead on Arrival (DOA)&lt;br/&gt;"/><marker lat="40.4844231" lng="-79.9414804" zone="Zone 5" incidentdate="2014-07-07" incidenttime="18:51:00" incidentnumber="14131177" address="1000 Downlook Street, Pittsburgh, PA 15201, USA" type="OFFENSE" description="*********************************************** &lt;br/&gt;Littering and Dumping; Any waste, dangerous or detrimental substance upon public property&lt;br/&gt;"/><marker lat="40.4283526" lng="-79.9774324" zone="Zone 3" incidentdate="2014-07-07" incidenttime="18:54:00" incidentnumber="14131181" address="2000 East Carson Street, Pittsburgh, PA 15203, USA" type="OFFENSE" description="*********************************************** &lt;br/&gt;Theft by Unlawful Taking or Disposition.&lt;br/&gt;"/><marker lat="40.4642322" lng="-79.9417806" zone="Zone 5" incidentdate="2014-07-07" incidenttime="19:26:00" incidentnumber="14131234" address="5100 Coral Street, Pittsburgh, PA 15224, USA" type="OFFENSE" description="*********************************************** &lt;br/&gt;Criminal Mischief.&lt;br/&gt;"/><marker lat="40.4805992" lng="-80.04437759999999" zone="Zone 1" incidentdate="2014-07-07" incidenttime="19:30:00" incidentnumber="14131218" address="3500 Elmhurst Avenue, Pittsburgh, PA 15212, USA" type="OFFENSE" description="*********************************************** &lt;br/&gt;Criminal Mischief.&lt;br/&gt;"/><marker lat="40.4406371" lng="-79.9844458" zone="Zone 2" incidentdate="2014-07-07" incidenttime="19:30:00" incidentnumber="14131213" address="Vine Street &amp; Foreside Place, Pittsburgh, PA 15219, USA" type="OFFENSE" description="*********************************************** &lt;br/&gt;Criminal Mischief.&lt;br/&gt;"/><marker lat="40.4509827" lng="-80.02170389999999" zone="Zone 1" incidentdate="2014-07-07" incidenttime="19:40:00" incidentnumber="13009928" address="1200 Western Avenue, Pittsburgh, PA 15233, USA" type="ARREST" description="*********************************************** &lt;br/&gt;Possession of Controlled Substance&lt;br/&gt;Possession w/ Intent to Del. Controlled Substance&lt;br/&gt;"/><marker lat="40.4283166" lng="-79.9679824" zone="Zone 3" incidentdate="2014-07-07" incidenttime="19:40:00" incidentnumber="14131269" address="2600 Sidney Street, Pittsburgh, PA 15203, USA" type="OFFENSE" description="*********************************************** &lt;br/&gt;Theft from Vehicle&lt;br/&gt;"/><marker lat="40.427421" lng="-79.948764" zone="Zone 4" incidentdate="2014-07-07" incidenttime="20:02:00" incidentnumber="14131238" address="300 Saline Street, Pittsburgh, PA 15207, USA" type="OFFENSE" description="*********************************************** &lt;br/&gt;Possession of Controlled Substance&lt;br/&gt;Possession w/ Intent to Del. Controlled Substance&lt;br/&gt;Delivery of Controlled Substance&lt;br/&gt;Possession of Controlled Substance&lt;br/&gt;"/><marker lat="40.427421" lng="-79.948764" zone="Zone 4" incidentdate="2014-07-07" incidenttime="20:15:00" incidentnumber="14131238" address="300 Saline Street, Pittsburgh, PA 15207, USA" type="ARREST" description="*********************************************** &lt;br/&gt;Possession of Controlled Substance&lt;br/&gt;Possession w/ Intent to Del. Controlled Substance&lt;br/&gt;Delivery of Controlled Substance&lt;br/&gt;Possession of Controlled Substance&lt;br/&gt;"/><marker lat="40.4640522" lng="-79.9527564" zone="Zone 5" incidentdate="2014-07-07" incidenttime="20:20:00" incidentnumber="14131255" address="4400 Howley Street, Pittsburgh, PA 15224, USA" type="OFFENSE" description="*********************************************** &lt;br/&gt;Found Drugs&lt;br/&gt;"/><marker lat="40.42346320000001" lng="-80.0095388" zone="Zone 3" incidentdate="2014-07-07" incidenttime="21:02:00" incidentnumber="14131199" address="200 Eutaw Street, Pittsburgh, PA 15211, USA" type="ARREST" description="*********************************************** &lt;br/&gt;Simple Assault - Intent., Know., Reckless.Cause Bod. Injury&lt;br/&gt;Simple Assault - Intent., Know., Reckless.Cause Bod. Injury&lt;br/&gt;"/><marker lat="40.459109" lng="-80.0648219" zone="Zone 6" incidentdate="2014-07-07" incidenttime="21:15:00" incidentnumber="14131239" address="Allendale Street &amp; Allendale Circle, Pittsburgh, PA 15204, USA" type="OFFENSE" description="*********************************************** &lt;br/&gt;Robbery.&lt;br/&gt;"/><marker lat="40.4871077" lng="-79.9322397" zone="Zone 5" incidentdate="2014-07-07" incidenttime="21:20:00" incidentnumber="14131294" address="100 Hawthorne Court, Pittsburgh, PA 15201, USA" type="OFFENSE" description="*********************************************** &lt;br/&gt;Harassment No Legitimate Purpose&lt;br/&gt;"/><marker lat="40.4236385" lng="-79.9618035" zone="Zone 3" incidentdate="2014-07-07" incidenttime="21:37:00" incidentnumber="14131304" address="East Carson Street &amp; Sarah Street, Pittsburgh, PA 15203, USA" type="ARREST" description="*********************************************** &lt;br/&gt;Driving While Operating Privilege is Suspended or Revoked.&lt;br/&gt;Careless Driving&lt;br/&gt;DUI - General Impairment&lt;br/&gt;DUI - Highest Rate of Alcohol - BAC &gt;= .16%&lt;br/&gt;Driving While Operating Privilege is Suspended or Revoked.&lt;br/&gt;Careless Driving&lt;br/&gt;DUI - General Impairment&lt;br/&gt;DUI - Highest Rate of Alcohol - BAC &gt;= .16%&lt;br/&gt;"/><marker lat="40.4236385" lng="-79.9618035" zone="Zone 3" incidentdate="2014-07-07" incidenttime="21:37:00" incidentnumber="14131304" address="East Carson Street &amp; Sarah Street, Pittsburgh, PA 15203, USA" type="OFFENSE" description="*********************************************** &lt;br/&gt;Driving While Operating Privilege is Suspended or Revoked.&lt;br/&gt;Careless Driving&lt;br/&gt;DUI - General Impairment&lt;br/&gt;DUI - Highest Rate of Alcohol - BAC &gt;= .16%&lt;br/&gt;Driving While Operating Privilege is Suspended or Revoked.&lt;br/&gt;Careless Driving&lt;br/&gt;DUI - General Impairment&lt;br/&gt;DUI - Highest Rate of Alcohol - BAC &gt;= .16%&lt;br/&gt;"/><marker lat="40.4475428" lng="-79.9799323" zone="Zone 2" incidentdate="2014-07-07" incidenttime="21:45:00" incidentnumber="14102100" address="800 Memory Lane, Pittsburgh, PA 15219, USA" type="ARREST" description="*********************************************** &lt;br/&gt;Simple Assault.&lt;br/&gt;(a) Disruptive activity prepetrataed/caused/permitted on property by owner(s)/tenant(s)/occupant(s)/invitee(s) of the property&lt;br/&gt;Simple Assault.&lt;br/&gt;"/></markers>

