<?xml version="1.0"?>
<markers><marker lat="40.4510022" lng="-79.98493479999999" zone="Zone 2" incidentdate="2014-07-05" incidenttime="00:15:00" incidentnumber="14129116" address="100 19th Street, Pittsburgh, PA 15222, USA" type="OFFENSE" description="*********************************************** &lt;br/&gt;Miscellaneous&lt;br/&gt;"/><marker lat="40.4287346" lng="-79.9863556" zone="Zone 3" incidentdate="2014-07-05" incidenttime="00:15:00" incidentnumber="14129120" address="1200 East Carson Street, Pittsburgh, PA 15203, USA" type="OFFENSE" description="*********************************************** &lt;br/&gt;DEF. TRESPASS ACTUAL COMMUNICATION&lt;br/&gt;DISORDERLY CONDUCT - OBSCENE LANG/GEST&lt;br/&gt;Public Drunkenness&lt;br/&gt;DEF. TRESPASS ACTUAL COMMUNICATION&lt;br/&gt;DISORDERLY CONDUCT - OBSCENE LANG/GEST&lt;br/&gt;Public Drunkenness&lt;br/&gt;"/><marker lat="40.4287346" lng="-79.9863556" zone="Zone 3" incidentdate="2014-07-05" incidenttime="00:15:00" incidentnumber="14129120" address="1200 East Carson Street, Pittsburgh, PA 15203, USA" type="ARREST" description="*********************************************** &lt;br/&gt;DEF. TRESPASS ACTUAL COMMUNICATION&lt;br/&gt;DISORDERLY CONDUCT - OBSCENE LANG/GEST&lt;br/&gt;Public Drunkenness&lt;br/&gt;DEF. TRESPASS ACTUAL COMMUNICATION&lt;br/&gt;DISORDERLY CONDUCT - OBSCENE LANG/GEST&lt;br/&gt;Public Drunkenness&lt;br/&gt;"/><marker lat="40.439135" lng="-79.9804599" zone="Zone 2" incidentdate="2014-07-05" incidenttime="00:20:00" incidentnumber="14129126" address="200 Dinwiddie Street, Pittsburgh, PA 15219, USA" type="OFFENSE" description="*********************************************** &lt;br/&gt;Simple Assault.&lt;br/&gt;Simple Assault.&lt;br/&gt;"/><marker lat="40.42650709999999" lng="-79.93273529999999" zone="Zone 4" incidentdate="2014-07-05" incidenttime="00:49:00" incidentnumber="14129159" address="900 Welfer Street, Pittsburgh, PA 15217, USA" type="OFFENSE" description="*********************************************** &lt;br/&gt;Criminal Trespass - Simple Trespasser&lt;br/&gt;Non-Violent Domestic&lt;br/&gt;"/><marker lat="40.4156663" lng="-79.9688995" zone="Zone 3" incidentdate="2014-07-05" incidenttime="00:50:00" incidentnumber="14129160" address="200 Rinne Street, Pittsburgh, PA 15210, USA" type="OFFENSE" description="*********************************************** &lt;br/&gt;Accidents Involving Damage to Unattended Veh.or Prop.&lt;br/&gt;"/><marker lat="40.4543466" lng="-79.97773459999999" zone="Zone 2" incidentdate="2014-07-05" incidenttime="00:51:00" incidentnumber="14129153" address="Liberty Avenue, Pittsburgh, PA, USA" type="ARREST" description="*********************************************** &lt;br/&gt;Aggravated Assault.&lt;br/&gt;Tampering with or Fabricating Physical Evidence.&lt;br/&gt;Public Drunkenness&lt;br/&gt;Aggravated Assault.&lt;br/&gt;Tampering with or Fabricating Physical Evidence.&lt;br/&gt;Public Drunkenness&lt;br/&gt;"/><marker lat="40.4543466" lng="-79.97773459999999" zone="Zone 2" incidentdate="2014-07-05" incidenttime="00:51:00" incidentnumber="14129153" address="Liberty Avenue, Pittsburgh, PA, USA" type="OFFENSE" description="*********************************************** &lt;br/&gt;Aggravated Assault.&lt;br/&gt;Tampering with or Fabricating Physical Evidence.&lt;br/&gt;Public Drunkenness&lt;br/&gt;Aggravated Assault.&lt;br/&gt;Tampering with or Fabricating Physical Evidence.&lt;br/&gt;Public Drunkenness&lt;br/&gt;"/><marker lat="40.4552716" lng="-79.9814585" zone="Zone 2" incidentdate="2014-07-05" incidenttime="00:55:00" incidentnumber="14129165" address="Railroad Street &amp; 25th Street, Pittsburgh, PA 15222, USA" type="OFFENSE" description="*********************************************** &lt;br/&gt;9999 - (Misc. Incident):&lt;br/&gt;"/><marker lat="40.439135" lng="-79.9804599" zone="Zone 2" incidentdate="2014-07-05" incidenttime="01:04:00" incidentnumber="14129126" address="200 Dinwiddie Street, Pittsburgh, PA 15219, USA" type="ARREST" description="*********************************************** &lt;br/&gt;Simple Assault.&lt;br/&gt;Simple Assault.&lt;br/&gt;"/><marker lat="40.4306913" lng="-80.0076041" zone="Zone 3" incidentdate="2014-07-05" incidenttime="01:17:00" incidentnumber="14129184" address="200 Shiloh Street, Pittsburgh, PA 15211, USA" type="OFFENSE" description="*********************************************** &lt;br/&gt;DEF. TRESPASS ACTUAL COMMUNICATION&lt;br/&gt;Bribery in Official and Political Matters.&lt;br/&gt;DISORDERLY CONDUCT - HAZARDOUS/PHYS. OFF&lt;br/&gt;Public Drunkenness&lt;br/&gt;DEF. TRESPASS ACTUAL COMMUNICATION&lt;br/&gt;Bribery in Official and Political Matters.&lt;br/&gt;DISORDERLY CONDUCT - HAZARDOUS/PHYS. OFF&lt;br/&gt;Public Drunkenness&lt;br/&gt;"/><marker lat="40.4306913" lng="-80.0076041" zone="Zone 3" incidentdate="2014-07-05" incidenttime="01:19:00" incidentnumber="14129184" address="200 Shiloh Street, Pittsburgh, PA 15211, USA" type="ARREST" description="*********************************************** &lt;br/&gt;DEF. TRESPASS ACTUAL COMMUNICATION&lt;br/&gt;Bribery in Official and Political Matters.&lt;br/&gt;DISORDERLY CONDUCT - HAZARDOUS/PHYS. OFF&lt;br/&gt;Public Drunkenness&lt;br/&gt;DEF. TRESPASS ACTUAL COMMUNICATION&lt;br/&gt;Bribery in Official and Political Matters.&lt;br/&gt;DISORDERLY CONDUCT - HAZARDOUS/PHYS. OFF&lt;br/&gt;Public Drunkenness&lt;br/&gt;"/><marker lat="40.4426666" lng="-80.0074209" zone="Zone 2" incidentdate="2014-07-05" incidenttime="01:20:00" incidentnumber="14129186" address="Fort Duquesne Boulevard &amp; Commonwealth Place, Pittsburgh, PA 15222, USA" type="OFFENSE" description="*********************************************** &lt;br/&gt;Missing Juvenile&lt;br/&gt;"/><marker lat="40.4284295" lng="-79.9746395" zone="Zone 3" incidentdate="2014-07-05" incidenttime="01:30:00" incidentnumber="14129187" address="East Carson Street &amp; South 22nd Street, Pittsburgh, PA 15203, USA" type="OFFENSE" description="*********************************************** &lt;br/&gt;Disorderly Conduct.&lt;br/&gt;"/><marker lat="40.3880157" lng="-79.91963" zone="Zone 4" incidentdate="2014-07-05" incidenttime="01:30:00" incidentnumber="14129226" address="4600 Homeridge Drive, Homestead, PA 15120, USA" type="OFFENSE" description="*********************************************** &lt;br/&gt;9999 - (Misc. Incident):&lt;br/&gt;"/><marker lat="40.4757207" lng="-79.9987937" zone="Zone 1" incidentdate="2014-07-05" incidenttime="02:10:00" incidentnumber="14129230" address="800 Mount Pleasant Road, Pittsburgh, PA 15214, USA" type="OFFENSE" description="*********************************************** &lt;br/&gt;Theft by Unlawful Taking or Disposition - Movable item&lt;br/&gt;"/><marker lat="40.4702378" lng="-80.0280607" zone="Zone 1" incidentdate="2014-07-05" incidenttime="02:15:00" incidentnumber="14124935" address="1200 Dickson Street, Pittsburgh, PA 15212, USA" type="ARREST" description="*********************************************** &lt;br/&gt;Burglary.&lt;br/&gt;Criminal Trespass&lt;br/&gt;"/><marker lat="40.4817267" lng="-79.9392948" zone="Zone 5" incidentdate="2014-07-05" incidenttime="02:54:00" incidentnumber="14129257" address="Stanton Avenue &amp; Woodbine Street, Pittsburgh, PA 15201, USA" type="OFFENSE" description="*********************************************** &lt;br/&gt;False Identification to Law Enforcement Authorities&lt;br/&gt;DISORDERLY CONDUCT - UNREASONABLE NOISE&lt;br/&gt;False Identification to Law Enforcement Authorities&lt;br/&gt;DISORDERLY CONDUCT - UNREASONABLE NOISE&lt;br/&gt;False Identification to Law Enforcement Authorities&lt;br/&gt;DISORDERLY CONDUCT - UNREASONABLE NOISE&lt;br/&gt;"/><marker lat="40.4498292" lng="-79.9745966" zone="Zone 2" incidentdate="2014-07-05" incidenttime="03:25:00" incidentnumber="14129275" address="2400 Chauncey Drive, Pittsburgh, PA 15219, USA" type="OFFENSE" description="*********************************************** &lt;br/&gt;Non-Violent Domestic&lt;br/&gt;"/><marker lat="40.4817267" lng="-79.9392948" zone="Zone 5" incidentdate="2014-07-05" incidenttime="03:48:00" incidentnumber="14129257" address="Stanton Avenue &amp; Woodbine Street, Pittsburgh, PA 15201, USA" type="ARREST" description="*********************************************** &lt;br/&gt;False Identification to Law Enforcement Authorities&lt;br/&gt;DISORDERLY CONDUCT - UNREASONABLE NOISE&lt;br/&gt;False Identification to Law Enforcement Authorities&lt;br/&gt;DISORDERLY CONDUCT - UNREASONABLE NOISE&lt;br/&gt;False Identification to Law Enforcement Authorities&lt;br/&gt;DISORDERLY CONDUCT - UNREASONABLE NOISE&lt;br/&gt;"/><marker lat="40.4817267" lng="-79.9392948" zone="Zone 5" incidentdate="2014-07-05" incidenttime="03:48:00" incidentnumber="14129257" address="Stanton Avenue &amp; Woodbine Street, Pittsburgh, PA 15201, USA" type="ARREST" description="*********************************************** &lt;br/&gt;False Identification to Law Enforcement Authorities&lt;br/&gt;DISORDERLY CONDUCT - UNREASONABLE NOISE&lt;br/&gt;False Identification to Law Enforcement Authorities&lt;br/&gt;DISORDERLY CONDUCT - UNREASONABLE NOISE&lt;br/&gt;False Identification to Law Enforcement Authorities&lt;br/&gt;DISORDERLY CONDUCT - UNREASONABLE NOISE&lt;br/&gt;"/><marker lat="40.435349" lng="-79.96135699999999" zone="Zone 4" incidentdate="2014-07-05" incidenttime="04:18:00" incidentnumber="14129294" address="300 Craft Avenue, Pittsburgh, PA 15213, USA" type="OFFENSE" description="*********************************************** &lt;br/&gt;Robbery.&lt;br/&gt;"/><marker lat="40.439734" lng="-79.9976617" zone="Zone 2" incidentdate="2014-07-05" incidenttime="05:09:00" incidentnumber="14129316" address="500 William Penn Place, Pittsburgh, PA 15219, USA" type="OFFENSE" description="*********************************************** &lt;br/&gt;9999 - (Misc. Incident):&lt;br/&gt;"/><marker lat="40.4415422" lng="-79.95697539999999" zone="Zone 4" incidentdate="2014-07-05" incidenttime="07:00:00" incidentnumber="14129337" address="200 Oakland Avenue, Pittsburgh, PA 15213, USA" type="OFFENSE" description="*********************************************** &lt;br/&gt;Burglary.&lt;br/&gt;"/><marker lat="40.4611142" lng="-79.92988869999999" zone="Zone 5" incidentdate="2014-07-05" incidenttime="08:00:00" incidentnumber="14129340" address="200 South Saint Clair Street, Pittsburgh, PA 15206, USA" type="OFFENSE" description="*********************************************** &lt;br/&gt;Harassment (Non-Specific)&lt;br/&gt;"/><marker lat="40.4655969" lng="-79.9293923" zone="Zone 5" incidentdate="2014-07-05" incidenttime="08:00:00" incidentnumber="14129498" address="5600 Rural Street, Pittsburgh, PA 15206, USA" type="OFFENSE" description="*********************************************** &lt;br/&gt;Theft from Vehicle&lt;br/&gt;"/><marker lat="40.4611142" lng="-79.92988869999999" zone="Zone 5" incidentdate="2014-07-05" incidenttime="08:00:00" incidentnumber="14129355" address="200 South Saint Clair Street, Pittsburgh, PA 15206, USA" type="OFFENSE" description="*********************************************** &lt;br/&gt;Harassment (Non-Specific)&lt;br/&gt;"/><marker lat="40.4581162" lng="-79.906008" zone="Zone 5" incidentdate="2014-07-05" incidenttime="08:05:00" incidentnumber="14129345" address="6800 Frankstown Avenue, Pittsburgh, PA 15208, USA" type="OFFENSE" description="*********************************************** &lt;br/&gt;Harassment by Physical Contact, or Attempts or Threats&lt;br/&gt;"/><marker lat="40.4201161" lng="-79.9436355" zone="Zone 4" incidentdate="2014-07-05" incidenttime="08:51:00" incidentnumber="14129368" address="Bigelow Street, Pittsburgh, PA 15207, USA" type="OFFENSE" description="*********************************************** &lt;br/&gt;9999 - (Misc. Incident):&lt;br/&gt;"/><marker lat="40.4905332" lng="-80.01292289999999" zone="Zone 1" incidentdate="2014-07-05" incidenttime="09:00:00" incidentnumber="14129376" address="300 Waldorf Street, Pittsburgh, PA 15214, USA" type="OFFENSE" description="*********************************************** &lt;br/&gt;Theft by Unlawful Taking or Disposition.&lt;br/&gt;"/><marker lat="40.472821" lng="-80.0378372" zone="Zone 1" incidentdate="2014-07-05" incidenttime="09:00:00" incidentnumber="14129360" address="3200 Bainton Street, Pittsburgh, PA 15212, USA" type="OFFENSE" description="*********************************************** &lt;br/&gt;Criminal Mischief.&lt;br/&gt;"/><marker lat="40.4479134" lng="-79.962989" zone="Zone 2" incidentdate="2014-07-05" incidenttime="09:00:00" incidentnumber="14129437" address="3100 Brackenridge Street, Pittsburgh, PA 15219, USA" type="OFFENSE" description="*********************************************** &lt;br/&gt;Theft by Unlawful Taking or Disposition - Movable item&lt;br/&gt;"/><marker lat="40.476263" lng="-80.0121618" zone="Zone 1" incidentdate="2014-07-05" incidenttime="09:04:00" incidentnumber="14129361" address="3000 Perrysville Avenue, Pittsburgh, PA 15214, USA" type="OFFENSE" description="*********************************************** &lt;br/&gt;Missing Juvenile&lt;br/&gt;"/><marker lat="40.4069768" lng="-80.004245" zone="Zone 6" incidentdate="2014-07-05" incidenttime="09:27:00" incidentnumber="14129366" address="Saw Mill Run Boulevard, PA, USA" type="OFFENSE" description="*********************************************** &lt;br/&gt;False  Burglar Alarm&lt;br/&gt;"/><marker lat="40.4596849" lng="-79.8930285" zone="Zone 5" incidentdate="2014-07-05" incidenttime="10:07:00" incidentnumber="14129382" address="7300 Hermitage Street, Pittsburgh, PA 15208, USA" type="OFFENSE" description="*********************************************** &lt;br/&gt;Burglary.&lt;br/&gt;"/><marker lat="40.4545529" lng="-80.04815789999999" zone="Zone 6" incidentdate="2014-07-05" incidenttime="10:20:00" incidentnumber="14129402" address="2700 Stafford Street, Pittsburgh, PA 15204, USA" type="OFFENSE" description="*********************************************** &lt;br/&gt;Theft by Unlawful Taking or Disposition - Movable item&lt;br/&gt;"/><marker lat="40.4501122" lng="-79.9497478" zone="Zone 4" incidentdate="2014-07-05" incidenttime="10:30:00" incidentnumber="14129480" address="200 Melwood Avenue, Pittsburgh, PA 15213, USA" type="OFFENSE" description="*********************************************** &lt;br/&gt;Access Device Fraud&lt;br/&gt;"/><marker lat="40.385435" lng="-79.984056" zone="Zone 3" incidentdate="2014-07-05" incidenttime="10:40:00" incidentnumber="14129406" address="2400 Valera Avenue, Pittsburgh, PA 15210, USA" type="OFFENSE" description="*********************************************** &lt;br/&gt;Criminal Mischief.&lt;br/&gt;"/><marker lat="40.426832" lng="-79.906651" zone="Zone 4" incidentdate="2014-07-05" incidenttime="11:00:00" incidentnumber="14129413" address="6800 Forward Avenue, Pittsburgh, PA 15217, USA" type="OFFENSE" description="*********************************************** &lt;br/&gt;Accidents Involving Damage to Unattended Veh.or Prop.&lt;br/&gt;"/><marker lat="40.4509827" lng="-80.02170389999999" zone="Zone 1" incidentdate="2014-07-05" incidenttime="11:09:00" incidentnumber="14129417" address="1200 Western Avenue, Pittsburgh, PA 15233, USA" type="OFFENSE" description="*********************************************** &lt;br/&gt;Criminal Homicide.&lt;br/&gt;Criminal Homicide.&lt;br/&gt;Criminal Homicide.&lt;br/&gt;Robbery.&lt;br/&gt;"/><marker lat="40.4509827" lng="-80.02170389999999" zone="Zone 1" incidentdate="2014-07-05" incidenttime="11:09:00" incidentnumber="14129417" address="1200 Western Avenue, Pittsburgh, PA 15233, USA" type="OFFENSE" description="*********************************************** &lt;br/&gt;Criminal Homicide.&lt;br/&gt;Criminal Homicide.&lt;br/&gt;Criminal Homicide.&lt;br/&gt;Robbery.&lt;br/&gt;"/><marker lat="40.4453724" lng="-80.05266379999999" zone="Zone 6" incidentdate="2014-07-05" incidenttime="12:10:00" incidentnumber="14129449" address="Woodlow Street, Pittsburgh, PA 15205, USA" type="OFFENSE" description="*********************************************** &lt;br/&gt;(a) Disruptive activity prepetrataed/caused/permitted on property by owner(s)/tenant(s)/occupant(s)/invitee(s) of the property&lt;br/&gt;Criminal Mischief.&lt;br/&gt;"/><marker lat="40.47062349999999" lng="-79.9327936" zone="Zone 5" incidentdate="2014-07-05" incidenttime="12:42:00" incidentnumber="14129598" address="North Aiken Avenue &amp; Black Street, Pittsburgh, PA 15206, USA" type="OFFENSE" description="*********************************************** &lt;br/&gt;Criminal Mischief.&lt;br/&gt;"/><marker lat="40.4547206" lng="-79.99216419999999" zone="Zone 1" incidentdate="2014-07-05" incidenttime="13:19:00" incidentnumber="14129484" address="Heinz Street, Pittsburgh, PA 15212, USA" type="OFFENSE" description="*********************************************** &lt;br/&gt;False  Burglar Alarm&lt;br/&gt;"/><marker lat="40.4688072" lng="-79.9177977" zone="Zone 5" incidentdate="2014-07-05" incidenttime="14:14:00" incidentnumber="14129515" address="800 Collins Street, Pittsburgh, PA 15206, USA" type="OFFENSE" description="*********************************************** &lt;br/&gt;Dead on Arrival (DOA)&lt;br/&gt;"/><marker lat="40.45652949999999" lng="-79.93647229999999" zone="Zone 4" incidentdate="2014-07-05" incidenttime="14:15:00" incidentnumber="14129519" address="500 South Graham Street, Pittsburgh, PA 15232, USA" type="OFFENSE" description="*********************************************** &lt;br/&gt;Criminal Mischief.&lt;br/&gt;"/><marker lat="40.4196104" lng="-79.92716159999999" zone="Zone 4" incidentdate="2014-07-05" incidenttime="14:45:00" incidentnumber="14129568" address="Beechwood Boulevard &amp; Hazelwood Avenue, Pittsburgh, PA 15217, USA" type="OFFENSE" description="*********************************************** &lt;br/&gt;Accidents Involving Damage to Attended Veh. or Property&lt;br/&gt;"/><marker lat="40.4509827" lng="-80.02170389999999" zone="Zone 1" incidentdate="2014-07-05" incidenttime="15:00:00" incidentnumber="14129417" address="1200 Western Avenue, Pittsburgh, PA 15233, USA" type="ARREST" description="*********************************************** &lt;br/&gt;Criminal Homicide.&lt;br/&gt;Criminal Homicide.&lt;br/&gt;Criminal Homicide.&lt;br/&gt;Robbery.&lt;br/&gt;"/><marker lat="40.4364662" lng="-80.015761" zone="Zone 3" incidentdate="2014-07-05" incidenttime="15:00:00" incidentnumber="14129532" address="Grandview Avenue, Pittsburgh, PA 15211, USA" type="OFFENSE" description="*********************************************** &lt;br/&gt;9999 - (Misc. Incident):&lt;br/&gt;"/><marker lat="40.4559713" lng="-80.0325338" zone="Zone 1" incidentdate="2014-07-05" incidenttime="15:18:00" incidentnumber="14129539" address="Chateau, Pittsburgh, PA, USA" type="OFFENSE" description="*********************************************** &lt;br/&gt;Careless Driving&lt;br/&gt;Accidents Involving Damage to Attended Veh. or Property&lt;br/&gt;"/><marker lat="40.4405352" lng="-79.9843519" zone="Zone 2" incidentdate="2014-07-05" incidenttime="15:18:00" incidentnumber="14216545" address="200 Vine Street, Pittsburgh, PA 15219, USA" type="OFFENSE" description="*********************************************** &lt;br/&gt;Miscellaneous Investigation&lt;br/&gt;"/><marker lat="40.46414420000001" lng="-79.9865098" zone="Zone 1" incidentdate="2014-07-05" incidenttime="15:40:00" incidentnumber="14127236" address="1600 High Street, Pittsburgh, PA 15212, USA" type="ARREST" description="*********************************************** &lt;br/&gt;Simple Assault - Attempts by Physical Menace&lt;br/&gt;Recklessly Endangering Another Person.&lt;br/&gt;Terroristic Threats.&lt;br/&gt;Simple Assault - Attempts by Physical Menace&lt;br/&gt;"/><marker lat="40.4719562" lng="-80.0273047" zone="Zone 1" incidentdate="2014-07-05" incidenttime="16:00:00" incidentnumber="14129595" address="2900 Brighton Road, Pittsburgh, PA 15212, USA" type="OFFENSE" description="*********************************************** &lt;br/&gt;Lost Property&lt;br/&gt;"/><marker lat="40.4584301" lng="-79.9300483" zone="Zone 4" incidentdate="2014-07-05" incidenttime="16:03:00" incidentnumber="14129579" address="5900 Centre Avenue, Pittsburgh, PA 15206, USA" type="OFFENSE" description="*********************************************** &lt;br/&gt;Retail Theft; takes possession of, carries away, or transfers displayed merchandise&lt;br/&gt;"/><marker lat="40.4640056" lng="-79.90978179999999" zone="Zone 5" incidentdate="2014-07-05" incidenttime="16:05:00" incidentnumber="14129563" address="6400 Shetland Street, Pittsburgh, PA 15206, USA" type="OFFENSE" description="*********************************************** &lt;br/&gt;Aggravated Assault.&lt;br/&gt;"/><marker lat="40.443611" lng="-79.9980439" zone="Zone 2" incidentdate="2014-07-05" incidenttime="16:22:00" incidentnumber="14129569" address="900 Penn Avenue, Pittsburgh, PA 15222, USA" type="OFFENSE" description="*********************************************** &lt;br/&gt;Simple Assault.&lt;br/&gt;Terroristic Threats.&lt;br/&gt;Resisting Arrest or Other Law Enforcement.&lt;br/&gt;DISORDERLY CONDUCT - OBSCENE LANG/GEST&lt;br/&gt;Public Drunkenness&lt;br/&gt;"/><marker lat="40.443611" lng="-79.9980439" zone="Zone 2" incidentdate="2014-07-05" incidenttime="16:23:00" incidentnumber="14129569" address="900 Penn Avenue, Pittsburgh, PA 15222, USA" type="ARREST" description="*********************************************** &lt;br/&gt;Simple Assault.&lt;br/&gt;Terroristic Threats.&lt;br/&gt;Resisting Arrest or Other Law Enforcement.&lt;br/&gt;DISORDERLY CONDUCT - OBSCENE LANG/GEST&lt;br/&gt;Public Drunkenness&lt;br/&gt;"/><marker lat="40.4898833" lng="-79.91180299999999" zone="Zone 5" incidentdate="2014-07-05" incidenttime="16:30:00" incidentnumber="14129649" address="Highland Park Bridge, Pittsburgh, PA, USA" type="OFFENSE" description="*********************************************** &lt;br/&gt;Theft of Property Lost, Mislaid or Delivered by Mistake.&lt;br/&gt;"/><marker lat="40.4524226" lng="-80.00347909999999" zone="Zone 1" incidentdate="2014-07-05" incidenttime="16:38:00" incidentnumber="14129586" address="400 East Commons, Pittsburgh, PA 15212, USA" type="OFFENSE" description="*********************************************** &lt;br/&gt;Paraphernalia - Use or Possession&lt;br/&gt;Defiant Trespass Notice Posted by Sign(s)&lt;br/&gt;Paraphernalia - Use or Possession&lt;br/&gt;Defiant Trespass Notice Posted by Sign(s)&lt;br/&gt;"/><marker lat="40.4524226" lng="-80.00347909999999" zone="Zone 1" incidentdate="2014-07-05" incidenttime="16:38:00" incidentnumber="14129586" address="400 East Commons, Pittsburgh, PA 15212, USA" type="ARREST" description="*********************************************** &lt;br/&gt;Paraphernalia - Use or Possession&lt;br/&gt;Defiant Trespass Notice Posted by Sign(s)&lt;br/&gt;Paraphernalia - Use or Possession&lt;br/&gt;Defiant Trespass Notice Posted by Sign(s)&lt;br/&gt;"/><marker lat="40.46688" lng="-79.933756" zone="Zone 5" incidentdate="2014-07-05" incidenttime="16:45:00" incidentnumber="14129602" address="300 North Graham Street, Pittsburgh, PA 15206, USA" type="OFFENSE" description="*********************************************** &lt;br/&gt;Burglary.&lt;br/&gt;"/><marker lat="40.4646196" lng="-79.9400241" zone="Zone 5" incidentdate="2014-07-05" incidenttime="17:00:00" incidentnumber="14129632" address="Penn Avenue, Pittsburgh, PA, USA" type="OFFENSE" description="*********************************************** &lt;br/&gt;Found Drugs&lt;br/&gt;"/><marker lat="40.4173736" lng="-79.98817509999999" zone="Zone 3" incidentdate="2014-07-05" incidenttime="17:10:00" incidentnumber="14129621" address="100 Jucunda Street, Pittsburgh, PA 15210, USA" type="OFFENSE" description="*********************************************** &lt;br/&gt;Simple Assault.&lt;br/&gt;Simple Assault.&lt;br/&gt;"/><marker lat="40.4800204" lng="-80.0096236" zone="Zone 1" incidentdate="2014-07-05" incidenttime="17:15:00" incidentnumber="14129617" address="100 Watson Boulevard, Pittsburgh, PA 15214, USA" type="OFFENSE" description="*********************************************** &lt;br/&gt;Paraphernalia - Use or Possession&lt;br/&gt;Paraphernalia - Use or Possession&lt;br/&gt;Paraphernalia - Use or Possession&lt;br/&gt;"/><marker lat="40.4800204" lng="-80.0096236" zone="Zone 1" incidentdate="2014-07-05" incidenttime="17:25:00" incidentnumber="14129617" address="100 Watson Boulevard, Pittsburgh, PA 15214, USA" type="ARREST" description="*********************************************** &lt;br/&gt;Paraphernalia - Use or Possession&lt;br/&gt;Paraphernalia - Use or Possession&lt;br/&gt;Paraphernalia - Use or Possession&lt;br/&gt;"/><marker lat="40.4800204" lng="-80.0096236" zone="Zone 1" incidentdate="2014-07-05" incidenttime="17:25:00" incidentnumber="14129617" address="100 Watson Boulevard, Pittsburgh, PA 15214, USA" type="ARREST" description="*********************************************** &lt;br/&gt;Paraphernalia - Use or Possession&lt;br/&gt;Paraphernalia - Use or Possession&lt;br/&gt;Paraphernalia - Use or Possession&lt;br/&gt;"/><marker lat="40.4440645" lng="-79.98695529999999" zone="Zone 2" incidentdate="2014-07-05" incidenttime="17:30:00" incidentnumber="14129638" address="Mercer Street, Pittsburgh, PA 15219, USA" type="ARREST" description="*********************************************** &lt;br/&gt;Terroristic Threats.&lt;br/&gt;DEF. TRESPASS ACTUAL COMMUNICATION&lt;br/&gt;Terroristic Threats.&lt;br/&gt;DEF. TRESPASS ACTUAL COMMUNICATION&lt;br/&gt;"/><marker lat="40.4440645" lng="-79.98695529999999" zone="Zone 2" incidentdate="2014-07-05" incidenttime="17:34:00" incidentnumber="14129638" address="Mercer Street, Pittsburgh, PA 15219, USA" type="OFFENSE" description="*********************************************** &lt;br/&gt;Terroristic Threats.&lt;br/&gt;DEF. TRESPASS ACTUAL COMMUNICATION&lt;br/&gt;Terroristic Threats.&lt;br/&gt;DEF. TRESPASS ACTUAL COMMUNICATION&lt;br/&gt;"/><marker lat="40.4396967" lng="-79.9704757" zone="Zone 4" incidentdate="2014-07-05" incidenttime="17:34:00" incidentnumber="14129635" address="Bentley Drive &amp; Burrows Street, Pittsburgh, PA 15213, USA" type="OFFENSE" description="*********************************************** &lt;br/&gt;Possession of Controlled Substance&lt;br/&gt;Possession w/ Intent to Del. Controlled Substance&lt;br/&gt;Driving While Operating Privilege is Suspended or Revoked.&lt;br/&gt;Operation of Vehicle without Official Certif. of Inspection&lt;br/&gt;Bench Warrant&lt;br/&gt;Possession of Controlled Substance&lt;br/&gt;Possession w/ Intent to Del. Controlled Substance&lt;br/&gt;"/><marker lat="40.4396967" lng="-79.9704757" zone="Zone 4" incidentdate="2014-07-05" incidenttime="17:35:00" incidentnumber="14129635" address="Bentley Drive &amp; Burrows Street, Pittsburgh, PA 15213, USA" type="ARREST" description="*********************************************** &lt;br/&gt;Possession of Controlled Substance&lt;br/&gt;Possession w/ Intent to Del. Controlled Substance&lt;br/&gt;Driving While Operating Privilege is Suspended or Revoked.&lt;br/&gt;Operation of Vehicle without Official Certif. of Inspection&lt;br/&gt;Bench Warrant&lt;br/&gt;Possession of Controlled Substance&lt;br/&gt;Possession w/ Intent to Del. Controlled Substance&lt;br/&gt;"/><marker lat="40.4586299" lng="-79.8898816" zone="Zone 4" incidentdate="2014-07-05" incidenttime="17:35:00" incidentnumber="14024242" address="Homewood North, Pittsburgh, PA, USA" type="ARREST" description="*********************************************** &lt;br/&gt;Theft by Unlawful Taking or Disposition.&lt;br/&gt;Unauthorized Use of Automobile and Other Vehicles.&lt;br/&gt;"/><marker lat="40.488166" lng="-80.015205" zone="Zone 1" incidentdate="2014-07-05" incidenttime="18:00:00" incidentnumber="14129636" address="3800 East Street, Pittsburgh, PA 15214, USA" type="OFFENSE" description="*********************************************** &lt;br/&gt;Burglary.&lt;br/&gt;"/><marker lat="40.4587468" lng="-79.92078529999999" zone="Zone 4" incidentdate="2014-07-05" incidenttime="18:05:00" incidentnumber="14129655" address="Shakespeare Street, Pittsburgh, PA 15206, USA" type="OFFENSE" description="*********************************************** &lt;br/&gt;Aided Case&lt;br/&gt;"/><marker lat="40.4173736" lng="-79.98817509999999" zone="Zone 3" incidentdate="2014-07-05" incidenttime="18:07:00" incidentnumber="14129621" address="100 Jucunda Street, Pittsburgh, PA 15210, USA" type="ARREST" description="*********************************************** &lt;br/&gt;Simple Assault.&lt;br/&gt;Simple Assault.&lt;br/&gt;"/><marker lat="40.4536929" lng="-80.0017941" zone="Zone 1" incidentdate="2014-07-05" incidenttime="18:10:00" incidentnumber="14129660" address="700 Cedar Avenue, Pittsburgh, PA 15212, USA" type="OFFENSE" description="*********************************************** &lt;br/&gt;Criminal Trespass&lt;br/&gt;Theft by Unlawful Taking or Disposition.&lt;br/&gt;"/><marker lat="40.4139199" lng="-80.0214129" zone="Zone 6" incidentdate="2014-07-05" incidenttime="18:12:00" incidentnumber="14129666" address="1300 Alton Street, Pittsburgh, PA 15216, USA" type="OFFENSE" description="*********************************************** &lt;br/&gt;Dead on Arrival (DOA)&lt;br/&gt;"/><marker lat="40.4199809" lng="-79.99886959999999" zone="Zone 3" incidentdate="2014-07-05" incidenttime="18:21:00" incidentnumber="14129681" address="Climax Street &amp; Curtin Avenue, Pittsburgh, PA 15210, USA" type="OFFENSE" description="*********************************************** &lt;br/&gt;Terroristic Threats.&lt;br/&gt;Obstructing Admin. of Law&lt;br/&gt;Resisting Arrest or Other Law Enforcement.&lt;br/&gt;Disorderly Conduct.&lt;br/&gt;Terroristic Threats.&lt;br/&gt;Obstructing Admin. of Law&lt;br/&gt;Resisting Arrest or Other Law Enforcement.&lt;br/&gt;Disorderly Conduct.&lt;br/&gt;"/><marker lat="40.4199809" lng="-79.99886959999999" zone="Zone 3" incidentdate="2014-07-05" incidenttime="18:29:00" incidentnumber="14129681" address="Climax Street &amp; Curtin Avenue, Pittsburgh, PA 15210, USA" type="ARREST" description="*********************************************** &lt;br/&gt;Terroristic Threats.&lt;br/&gt;Obstructing Admin. of Law&lt;br/&gt;Resisting Arrest or Other Law Enforcement.&lt;br/&gt;Disorderly Conduct.&lt;br/&gt;Terroristic Threats.&lt;br/&gt;Obstructing Admin. of Law&lt;br/&gt;Resisting Arrest or Other Law Enforcement.&lt;br/&gt;Disorderly Conduct.&lt;br/&gt;"/><marker lat="40.3913597" lng="-79.98528429999999" zone="Zone 3" incidentdate="2014-07-05" incidenttime="18:55:00" incidentnumber="14103876" address="100 Eiler Avenue, Pittsburgh, PA 15210, USA" type="ARREST" description="*********************************************** &lt;br/&gt;Simple Assault.&lt;br/&gt;Criminal Conspiracy.&lt;br/&gt;Simple Assault.&lt;br/&gt;Criminal Conspiracy.&lt;br/&gt;"/><marker lat="40.421536" lng="-79.9935859" zone="Zone 3" incidentdate="2014-07-05" incidenttime="18:55:00" incidentnumber="14129698" address="800 East Warrington Avenue, Pittsburgh, PA 15210, USA" type="OFFENSE" description="*********************************************** &lt;br/&gt;Possession of Controlled Substance&lt;br/&gt;Possession w/ Intent to Del. Controlled Substance&lt;br/&gt;Bench Warrant&lt;br/&gt;Possession of Controlled Substance&lt;br/&gt;Possession w/ Intent to Del. Controlled Substance&lt;br/&gt;Bench Warrant&lt;br/&gt;"/><marker lat="40.421536" lng="-79.9935859" zone="Zone 3" incidentdate="2014-07-05" incidenttime="18:55:00" incidentnumber="14129698" address="800 East Warrington Avenue, Pittsburgh, PA 15210, USA" type="ARREST" description="*********************************************** &lt;br/&gt;Possession of Controlled Substance&lt;br/&gt;Possession w/ Intent to Del. Controlled Substance&lt;br/&gt;Bench Warrant&lt;br/&gt;Possession of Controlled Substance&lt;br/&gt;Possession w/ Intent to Del. Controlled Substance&lt;br/&gt;Bench Warrant&lt;br/&gt;"/><marker lat="40.4207312" lng="-79.99736299999999" zone="Zone 3" incidentdate="2014-07-05" incidenttime="19:05:00" incidentnumber="14129705" address="Beltzhoover Avenue &amp; Industry Street, Pittsburgh, PA 15210, USA" type="ARREST" description="*********************************************** &lt;br/&gt;Possession of Controlled Substance&lt;br/&gt;Possession of Controlled Substance&lt;br/&gt;"/><marker lat="40.4207312" lng="-79.99736299999999" zone="Zone 3" incidentdate="2014-07-05" incidenttime="19:10:00" incidentnumber="14129705" address="Beltzhoover Avenue &amp; Industry Street, Pittsburgh, PA 15210, USA" type="OFFENSE" description="*********************************************** &lt;br/&gt;Possession of Controlled Substance&lt;br/&gt;Possession of Controlled Substance&lt;br/&gt;"/><marker lat="40.4580721" lng="-80.008648" zone="Zone 1" incidentdate="2014-07-05" incidenttime="19:35:00" incidentnumber="14129723" address="100 Jacksonia Street, Pittsburgh, PA 15212, USA" type="OFFENSE" description="*********************************************** &lt;br/&gt;Theft by Unlawful Taking or Disposition.&lt;br/&gt;"/><marker lat="40.401363" lng="-80.009433" zone="Zone 6" incidentdate="2014-07-05" incidenttime="19:42:00" incidentnumber="14129702" address="800 Mayville Avenue, Pittsburgh, PA 15226, USA" type="OFFENSE" description="*********************************************** &lt;br/&gt;Aided Case&lt;br/&gt;"/><marker lat="40.4859005" lng="-79.92652470000002" zone="Zone 5" incidentdate="2014-07-05" incidenttime="19:45:00" incidentnumber="14129706" address="Jancey Street &amp; Greenwood Street, Pittsburgh, PA 15206, USA" type="OFFENSE" description="*********************************************** &lt;br/&gt;Simple Assault.&lt;br/&gt;"/><marker lat="40.4482248" lng="-79.98688589999999" zone="Zone 2" incidentdate="2014-07-05" incidenttime="20:00:00" incidentnumber="14129707" address="Liberty Avenue &amp; 16th Street, Pittsburgh, PA 15222, USA" type="OFFENSE" description="*********************************************** &lt;br/&gt;Harassment (Non-Specific)&lt;br/&gt;"/><marker lat="40.4725718" lng="-80.0373132" zone="Zone 1" incidentdate="2014-07-05" incidenttime="20:39:00" incidentnumber="14129675" address="3100 Mount Hope Road, Pittsburgh, PA 15212, USA" type="ARREST" description="*********************************************** &lt;br/&gt;Possession of Controlled Substance&lt;br/&gt;Possession w/ Intent to Del. Controlled Substance&lt;br/&gt;Paraphernalia - Use or Possession&lt;br/&gt;Criminal Conspiracy.&lt;br/&gt;Possessing Instruments of Crime.&lt;br/&gt;Possession of Controlled Substance&lt;br/&gt;Possession w/ Intent to Del. Controlled Substance&lt;br/&gt;Paraphernalia - Use or Possession&lt;br/&gt;Criminal Conspiracy.&lt;br/&gt;Possessing Instruments of Crime.&lt;br/&gt;Possession of Controlled Substance&lt;br/&gt;Possession w/ Intent to Del. Controlled Substance&lt;br/&gt;Paraphernalia - Use or Possession&lt;br/&gt;Criminal Conspiracy.&lt;br/&gt;Possessing Instruments of Crime.&lt;br/&gt;"/><marker lat="40.4610526" lng="-79.9097927" zone="Zone 5" incidentdate="2014-07-05" incidenttime="20:57:00" incidentnumber="14104535" address="Lincoln Avenue &amp; Meadow Street, Pittsburgh, PA 15206, USA" type="OFFENSE" description="*********************************************** &lt;br/&gt;Recovered Stolen Vehicle (OUTSIDE CITY)&lt;br/&gt;Reckless Burning or Exploding&lt;br/&gt;Receiving Stolen Property.&lt;br/&gt;Removal or Falsification of Identification Number&lt;br/&gt;State Replacement Vehicle Identification Number Plate&lt;br/&gt;"/><marker lat="40.4725718" lng="-80.0373132" zone="Zone 1" incidentdate="2014-07-05" incidenttime="21:01:00" incidentnumber="14129675" address="3100 Mount Hope Road, Pittsburgh, PA 15212, USA" type="ARREST" description="*********************************************** &lt;br/&gt;Possession of Controlled Substance&lt;br/&gt;Possession w/ Intent to Del. Controlled Substance&lt;br/&gt;Paraphernalia - Use or Possession&lt;br/&gt;Criminal Conspiracy.&lt;br/&gt;Possessing Instruments of Crime.&lt;br/&gt;Possession of Controlled Substance&lt;br/&gt;Possession w/ Intent to Del. Controlled Substance&lt;br/&gt;Paraphernalia - Use or Possession&lt;br/&gt;Criminal Conspiracy.&lt;br/&gt;Possessing Instruments of Crime.&lt;br/&gt;Possession of Controlled Substance&lt;br/&gt;Possession w/ Intent to Del. Controlled Substance&lt;br/&gt;Paraphernalia - Use or Possession&lt;br/&gt;Criminal Conspiracy.&lt;br/&gt;Possessing Instruments of Crime.&lt;br/&gt;"/><marker lat="40.4610526" lng="-79.9097927" zone="Zone 5" incidentdate="2014-07-05" incidenttime="21:05:00" incidentnumber="14104535" address="Lincoln Avenue &amp; Meadow Street, Pittsburgh, PA 15206, USA" type="ARREST" description="*********************************************** &lt;br/&gt;Recovered Stolen Vehicle (OUTSIDE CITY)&lt;br/&gt;Reckless Burning or Exploding&lt;br/&gt;Receiving Stolen Property.&lt;br/&gt;Removal or Falsification of Identification Number&lt;br/&gt;State Replacement Vehicle Identification Number Plate&lt;br/&gt;"/><marker lat="40.4725718" lng="-80.0373132" zone="Zone 1" incidentdate="2014-07-05" incidenttime="21:24:00" incidentnumber="14129675" address="3100 Mount Hope Road, Pittsburgh, PA 15212, USA" type="OFFENSE" description="*********************************************** &lt;br/&gt;Possession of Controlled Substance&lt;br/&gt;Possession w/ Intent to Del. Controlled Substance&lt;br/&gt;Paraphernalia - Use or Possession&lt;br/&gt;Criminal Conspiracy.&lt;br/&gt;Possessing Instruments of Crime.&lt;br/&gt;Possession of Controlled Substance&lt;br/&gt;Possession w/ Intent to Del. Controlled Substance&lt;br/&gt;Paraphernalia - Use or Possession&lt;br/&gt;Criminal Conspiracy.&lt;br/&gt;Possessing Instruments of Crime.&lt;br/&gt;Possession of Controlled Substance&lt;br/&gt;Possession w/ Intent to Del. Controlled Substance&lt;br/&gt;Paraphernalia - Use or Possession&lt;br/&gt;Criminal Conspiracy.&lt;br/&gt;Possessing Instruments of Crime.&lt;br/&gt;"/><marker lat="40.4670214" lng="-79.9937027" zone="Zone 1" incidentdate="2014-07-05" incidenttime="21:30:00" incidentnumber="14129750" address="100 Rhine Place, Pittsburgh, PA 15212, USA" type="OFFENSE" description="*********************************************** &lt;br/&gt;Simple Assault.&lt;br/&gt;Simple Assault.&lt;br/&gt;"/><marker lat="40.4670214" lng="-79.9937027" zone="Zone 1" incidentdate="2014-07-05" incidenttime="21:30:00" incidentnumber="14129750" address="100 Rhine Place, Pittsburgh, PA 15212, USA" type="ARREST" description="*********************************************** &lt;br/&gt;Simple Assault.&lt;br/&gt;Simple Assault.&lt;br/&gt;"/><marker lat="40.4591939" lng="-80.0099413" zone="Zone 1" incidentdate="2014-07-05" incidenttime="22:14:00" incidentnumber="14129809" address="200 East Jefferson Street, Pittsburgh, PA 15212, USA" type="OFFENSE" description="*********************************************** &lt;br/&gt;Indirect Criminal Contempt&lt;br/&gt;Indirect Criminal Contempt&lt;br/&gt;"/><marker lat="40.4591939" lng="-80.0099413" zone="Zone 1" incidentdate="2014-07-05" incidenttime="22:50:00" incidentnumber="14129809" address="200 East Jefferson Street, Pittsburgh, PA 15212, USA" type="ARREST" description="*********************************************** &lt;br/&gt;Indirect Criminal Contempt&lt;br/&gt;Indirect Criminal Contempt&lt;br/&gt;"/></markers>

